[
  {
    "country": "US",
    "state": "CA",
    "latitude": 36,
    "longitude": -121.233,
    "name": "JOLON HUNTER LIGGETT MIL RES",
    "elevation": 1040.02628,
    "ICAO": "KHGT",
    "mindate": "1964-07-15",
    "maxdate": "2003-08-01",
    "isdID": "69002093218,69002099999,72388493218,72391493218",
    "ranges": [
      {
        "mindate": "1964-07-15",
        "maxdate": "1997-04-01",
        "latitude": 36,
        "longitude": -121.233,
        "name": "JOLON HUNTER LIGGETT MIL RES",
        "elevation": "+0317.0",
        "ids": [
          {
            "type": "USAF",
            "id": "690020"
          },
          {
            "type": "WBAN",
            "id": "93218"
          },
          {
            "type": "ICAO",
            "id": "KHGT"
          },
          {
            "type": "isdID",
            "id": "69002093218"
          }
        ]
      },
      {
        "mindate": "2003-07-02",
        "maxdate": "2003-08-01",
        "latitude": 36,
        "longitude": -121.233,
        "name": "JOLON HUNTER LIGGETT MIL RES",
        "elevation": "+0317.0",
        "ids": [
          {
            "type": "USAF",
            "id": "690020"
          },
          {
            "type": "WBAN",
            "id": "99999"
          },
          {
            "type": "ICAO",
            "id": "KHGT"
          },
          {
            "type": "isdID",
            "id": "69002099999"
          }
        ]
      },
      {
        "mindate": "1988-01-05",
        "maxdate": "1989-11-27",
        "latitude": 36,
        "longitude": -121.233,
        "name": "JOLON HUNTER LIGGETT MIL RES",
        "elevation": "+0317.0",
        "ids": [
          {
            "type": "USAF",
            "id": "723884"
          },
          {
            "type": "WBAN",
            "id": "93218"
          },
          {
            "type": "ICAO",
            "id": ""
          },
          {
            "type": "isdID",
            "id": "72388493218"
          }
        ]
      },
      {
        "mindate": "1979-03-15",
        "maxdate": "1988-01-05",
        "latitude": 36,
        "longitude": -121.233,
        "name": "JOLON HUNTER LIGGETT MIL RES",
        "elevation": "+0317.0",
        "ids": [
          {
            "type": "USAF",
            "id": "723914"
          },
          {
            "type": "WBAN",
            "id": "93218"
          },
          {
            "type": "ICAO",
            "id": ""
          },
          {
            "type": "isdID",
            "id": "72391493218"
          }
        ]
      },
      {
        "mindate": "1964-08-01",
        "maxdate": "1971-07-01",
        "latitude": 36,
        "longitude": -121.23333,
        "name": "JOLON FORT HUNTER LIGGETT, CA US",
        "elevation": 317,
        "ids": [
          {
            "type": "GHCND",
            "id": "USW00093218"
          }
        ]
      }
    ],
    "ghcndID": "USW00093218"
  },
  {
    "country": "US",
    "state": "CA",
    "latitude": 36.683,
    "longitude": -121.767,
    "name": "FRITZSCHE AAF",
    "elevation": 141.07612,
    "ICAO": "KOAR",
    "mindate": "1960-04-01",
    "maxdate": "1993-08-31",
    "isdID": "69007093217,72491693217,99999993217",
    "ranges": [
      {
        "mindate": "1960-04-04",
        "maxdate": "1993-08-31",
        "latitude": 36.683,
        "longitude": -121.767,
        "name": "FRITZSCHE AAF",
        "elevation": "+0043.0",
        "ids": [
          {
            "type": "USAF",
            "id": "690070"
          },
          {
            "type": "WBAN",
            "id": "93217"
          },
          {
            "type": "ICAO",
            "id": "KOAR"
          },
          {
            "type": "isdID",
            "id": "69007093217"
          }
        ]
      },
      {
        "mindate": "1973-01-02",
        "maxdate": "1990-12-29",
        "latitude": 36.683,
        "longitude": -121.767,
        "name": "FRITZSCHE AAF",
        "elevation": "",
        "ids": [
          {
            "type": "USAF",
            "id": "724916"
          },
          {
            "type": "WBAN",
            "id": "93217"
          },
          {
            "type": "ICAO",
            "id": "KOAR"
          },
          {
            "type": "isdID",
            "id": "72491693217"
          }
        ]
      },
      {
        "mindate": "1971-01-01",
        "maxdate": "1971-01-01",
        "latitude": 36.683,
        "longitude": -121.767,
        "name": "FRITZSCHE AAF",
        "elevation": "+0043.9",
        "ids": [
          {
            "type": "USAF",
            "id": "999999"
          },
          {
            "type": "WBAN",
            "id": "93217"
          },
          {
            "type": "ICAO",
            "id": "KOAR"
          },
          {
            "type": "isdID",
            "id": "99999993217"
          }
        ]
      },
      {
        "mindate": "1960-04-01",
        "maxdate": "1978-11-01",
        "latitude": 36.68333,
        "longitude": -121.76667,
        "name": "FRITZSCHE ARMY AIR FIELD, CA US",
        "elevation": 43,
        "ids": [
          {
            "type": "GHCND",
            "id": "USW00093217"
          }
        ]
      }
    ],
    "ghcndID": "USW00093217"
  },
  {
    "country": "US",
    "state": "CA",
    "latitude": 33.667,
    "longitude": -117.733,
    "name": "EL TORO MCAS",
    "elevation": 382.874028,
    "ICAO": "KNZJ",
    "mindate": "1945-03-01",
    "maxdate": "2000-11-01",
    "isdID": "69014093101,72290899999,99999993101",
    "ranges": [
      {
        "mindate": "1989-01-01",
        "maxdate": "1999-06-30",
        "latitude": 33.667,
        "longitude": -117.733,
        "name": "EL TORO MCAS",
        "elevation": "+0116.7",
        "ids": [
          {
            "type": "USAF",
            "id": "690140"
          },
          {
            "type": "WBAN",
            "id": "93101"
          },
          {
            "type": "ICAO",
            "id": "KNZJ"
          },
          {
            "type": "isdID",
            "id": "69014093101"
          }
        ]
      },
      {
        "mindate": "1973-01-01",
        "maxdate": "1989-01-12",
        "latitude": 33.667,
        "longitude": -117.733,
        "name": "EL TORO(USMC)",
        "elevation": "+0117.0",
        "ids": [
          {
            "type": "USAF",
            "id": "722908"
          },
          {
            "type": "WBAN",
            "id": "99999"
          },
          {
            "type": "ICAO",
            "id": ""
          },
          {
            "type": "isdID",
            "id": "72290899999"
          }
        ]
      },
      {
        "mindate": "1945-03-01",
        "maxdate": "2000-11-01",
        "latitude": 33.667,
        "longitude": -117.733,
        "name": "EL TORO MCAS",
        "elevation": "+0116.7",
        "ids": [
          {
            "type": "USAF",
            "id": "999999"
          },
          {
            "type": "WBAN",
            "id": "93101"
          },
          {
            "type": "ICAO",
            "id": "KNZJ"
          },
          {
            "type": "isdID",
            "id": "99999993101"
          }
        ]
      },
      {
        "mindate": "1945-03-01",
        "maxdate": "1998-11-01",
        "latitude": 33.66667,
        "longitude": -117.73333,
        "name": "EL TORO MCAS, CA US",
        "elevation": 117,
        "ids": [
          {
            "type": "GHCND",
            "id": "USW00093101"
          }
        ]
      }
    ],
    "ghcndID": "USW00093101"
  },
  {
    "country": "US",
    "state": "CA",
    "latitude": 34.3,
    "longitude": -116.167,
    "name": "TWENTY NINE PALMS",
    "elevation": 2050.853084,
    "ICAO": "KNXP",
    "mindate": "1945-05-01",
    "maxdate": "2020-09-28",
    "isdID": "69015093121,69015099999,72381493121,99999993121",
    "ranges": [
      {
        "mindate": "1990-01-02",
        "maxdate": "2020-09-28",
        "latitude": 34.3,
        "longitude": -116.167,
        "name": "TWENTY NINE PALMS",
        "elevation": "+0625.1",
        "ids": [
          {
            "type": "USAF",
            "id": "690150"
          },
          {
            "type": "WBAN",
            "id": "93121"
          },
          {
            "type": "ICAO",
            "id": "KNXP"
          },
          {
            "type": "isdID",
            "id": "69015093121"
          }
        ]
      },
      {
        "mindate": "1989-11-15",
        "maxdate": "1989-12-29",
        "latitude": 34.3,
        "longitude": -116.167,
        "name": "TWENTYNINE PALMS",
        "elevation": "+0626.0",
        "ids": [
          {
            "type": "USAF",
            "id": "690150"
          },
          {
            "type": "WBAN",
            "id": "99999"
          },
          {
            "type": "ICAO",
            "id": "KNXP"
          },
          {
            "type": "isdID",
            "id": "69015099999"
          }
        ]
      },
      {
        "mindate": "1977-07-11",
        "maxdate": "1989-11-27",
        "latitude": 34.3,
        "longitude": -116.167,
        "name": "TWENTYNINE PALMS NAAS",
        "elevation": "+0695.9",
        "ids": [
          {
            "type": "USAF",
            "id": "723814"
          },
          {
            "type": "WBAN",
            "id": "93121"
          },
          {
            "type": "ICAO",
            "id": "KNXP"
          },
          {
            "type": "isdID",
            "id": "72381493121"
          }
        ]
      },
      {
        "mindate": "1945-05-01",
        "maxdate": "1945-10-31",
        "latitude": 34.3,
        "longitude": -116.167,
        "name": "TWENTY NINE PALMS",
        "elevation": "+0625.1",
        "ids": [
          {
            "type": "USAF",
            "id": "999999"
          },
          {
            "type": "WBAN",
            "id": "93121"
          },
          {
            "type": "ICAO",
            "id": "KNXP"
          },
          {
            "type": "isdID",
            "id": "99999993121"
          }
        ]
      },
      {
        "mindate": "1945-05-01",
        "maxdate": "2005-11-01",
        "latitude": 34.3,
        "longitude": -116.16667,
        "name": "TWENTYNINE PALMS MC, CA US",
        "elevation": 625.1,
        "ids": [
          {
            "type": "GHCND",
            "id": "USW00093121"
          }
        ]
      }
    ],
    "ghcndID": "USW00093121"
  },
  {
    "country": "US",
    "state": "TX",
    "latitude": 32.433,
    "longitude": -99.85,
    "name": "DYESS AIR FORCE BASE",
    "elevation": 1788.0578,
    "ICAO": "KDYS",
    "mindate": "1943-12-01",
    "maxdate": "2020-09-28",
    "isdID": "69019013910,72096513910,72096599999,72266513910,99999913910",
    "ranges": [
      {
        "mindate": "1943-12-01",
        "maxdate": "2009-12-31",
        "latitude": 32.433,
        "longitude": -99.85,
        "name": "ABILENE DYESS AFB",
        "elevation": "+0545.3",
        "ids": [
          {
            "type": "USAF",
            "id": "690190"
          },
          {
            "type": "WBAN",
            "id": "13910"
          },
          {
            "type": "ICAO",
            "id": "KDYS"
          },
          {
            "type": "isdID",
            "id": "69019013910"
          }
        ]
      },
      {
        "mindate": "2005-01-03",
        "maxdate": "2020-09-28",
        "latitude": 32.433,
        "longitude": -99.85,
        "name": "DYESS AIR FORCE BASE",
        "elevation": "+0545.0",
        "ids": [
          {
            "type": "USAF",
            "id": "720965"
          },
          {
            "type": "WBAN",
            "id": "13910"
          },
          {
            "type": "ICAO",
            "id": "KDYS"
          },
          {
            "type": "isdID",
            "id": "72096513910"
          }
        ]
      },
      {
        "mindate": "2018-01-01",
        "maxdate": "2018-04-04",
        "latitude": 32.417,
        "longitude": -99.85,
        "name": "DYESS AFB/ABILENE",
        "elevation": "+0545.0",
        "ids": [
          {
            "type": "USAF",
            "id": "720965"
          },
          {
            "type": "WBAN",
            "id": "99999"
          },
          {
            "type": "ICAO",
            "id": "KDYS"
          },
          {
            "type": "isdID",
            "id": "72096599999"
          }
        ]
      },
      {
        "mindate": "1973-01-01",
        "maxdate": "1988-12-31",
        "latitude": 32.433,
        "longitude": -99.85,
        "name": "ABILENE DYESS AFB",
        "elevation": "+0545.3",
        "ids": [
          {
            "type": "USAF",
            "id": "722665"
          },
          {
            "type": "WBAN",
            "id": "13910"
          },
          {
            "type": "ICAO",
            "id": "KDYS"
          },
          {
            "type": "isdID",
            "id": "72266513910"
          }
        ]
      },
      {
        "mindate": "1971-01-01",
        "maxdate": "1971-01-01",
        "latitude": 32.433,
        "longitude": -99.85,
        "name": "ABILENE DYESS AAF",
        "elevation": "+0545.3",
        "ids": [
          {
            "type": "USAF",
            "id": "999999"
          },
          {
            "type": "WBAN",
            "id": "13910"
          },
          {
            "type": "ICAO",
            "id": "KDYS"
          },
          {
            "type": "isdID",
            "id": "99999913910"
          }
        ]
      },
      {
        "mindate": "1956-04-01",
        "maxdate": "1970-12-01",
        "latitude": 32.43333,
        "longitude": -99.85,
        "name": "ABILENE DYESS AFB, TX US",
        "elevation": 545,
        "ids": [
          {
            "type": "GHCND",
            "id": "USW00013910"
          }
        ]
      }
    ],
    "ghcndID": "USW00013910"
  },
  {
    "country": "US",
    "state": "WA",
    "latitude": 48.35,
    "longitude": -122.667,
    "name": "WHIDBEY ISLAND NAS",
    "elevation": 46.916012,
    "ICAO": "KNUW",
    "mindate": "1945-04-01",
    "maxdate": "2020-09-28",
    "isdID": "69023024255,72074924255,72797524255,99999924255",
    "ranges": [
      {
        "mindate": "1989-12-01",
        "maxdate": "2009-06-02",
        "latitude": 48.35,
        "longitude": -122.667,
        "name": "WHIDBEY ISLAND NAS",
        "elevation": "+0014.3",
        "ids": [
          {
            "type": "USAF",
            "id": "690230"
          },
          {
            "type": "WBAN",
            "id": "24255"
          },
          {
            "type": "ICAO",
            "id": "KNUW"
          },
          {
            "type": "isdID",
            "id": "69023024255"
          }
        ]
      },
      {
        "mindate": "2005-01-01",
        "maxdate": "2020-09-28",
        "latitude": 48.35,
        "longitude": -122.667,
        "name": "WHIDBEY ISLAND NAS",
        "elevation": "+0014.3",
        "ids": [
          {
            "type": "USAF",
            "id": "720749"
          },
          {
            "type": "WBAN",
            "id": "24255"
          },
          {
            "type": "ICAO",
            "id": "KNUW"
          },
          {
            "type": "isdID",
            "id": "72074924255"
          }
        ]
      },
      {
        "mindate": "1973-01-01",
        "maxdate": "1989-11-30",
        "latitude": 48.35,
        "longitude": -122.667,
        "name": "WHIDBEY ISLAND NAS",
        "elevation": "+0014.3",
        "ids": [
          {
            "type": "USAF",
            "id": "727975"
          },
          {
            "type": "WBAN",
            "id": "24255"
          },
          {
            "type": "ICAO",
            "id": "KNUW"
          },
          {
            "type": "isdID",
            "id": "72797524255"
          }
        ]
      },
      {
        "mindate": "1945-04-01",
        "maxdate": "1972-12-31",
        "latitude": 48.35,
        "longitude": -122.667,
        "name": "WHIDBEY ISLAND NAS",
        "elevation": "+0014.3",
        "ids": [
          {
            "type": "USAF",
            "id": "999999"
          },
          {
            "type": "WBAN",
            "id": "24255"
          },
          {
            "type": "ICAO",
            "id": "KNUW"
          },
          {
            "type": "isdID",
            "id": "99999924255"
          }
        ]
      },
      {
        "mindate": "1945-04-01",
        "maxdate": "2020-05-01",
        "latitude": 48.35,
        "longitude": -122.66667,
        "name": "WHIDBEY ISLAND NAS, WA US",
        "elevation": 14.3,
        "ids": [
          {
            "type": "GHCND",
            "id": "USW00024255"
          }
        ]
      }
    ],
    "ghcndID": "USW00024255"
  },
  {
    "country": "US",
    "state": "WA",
    "latitude": 47.217,
    "longitude": -124.2,
    "name": "PACIFIC BEACH NF",
    "elevation": 59.05512,
    "ICAO": "KNIX",
    "mindate": "1937-03-01",
    "maxdate": "1987-05-21",
    "isdID": "69024099999,72791799999",
    "ranges": [
      {
        "mindate": "1980-06-03",
        "maxdate": "1985-10-31",
        "latitude": 47.217,
        "longitude": -124.2,
        "name": "PACIFIC BEACH",
        "elevation": "+0018.0",
        "ids": [
          {
            "type": "USAF",
            "id": "690240"
          },
          {
            "type": "WBAN",
            "id": "99999"
          },
          {
            "type": "ICAO",
            "id": "KNIX"
          },
          {
            "type": "isdID",
            "id": "69024099999"
          }
        ]
      },
      {
        "mindate": "1978-01-24",
        "maxdate": "1987-05-21",
        "latitude": 47.217,
        "longitude": -124.2,
        "name": "PACIFIC BEACH NF",
        "elevation": "+0018.0",
        "ids": [
          {
            "type": "USAF",
            "id": "727917"
          },
          {
            "type": "WBAN",
            "id": "99999"
          },
          {
            "type": "ICAO",
            "id": "NIX"
          },
          {
            "type": "isdID",
            "id": "72791799999"
          }
        ]
      },
      {
        "mindate": "1937-03-01",
        "maxdate": "1951-09-01",
        "latitude": 47.21667,
        "longitude": -124.2,
        "name": "MOCLIPS, WA US",
        "elevation": 36.9,
        "ids": [
          {
            "type": "GHCND",
            "id": "USC00455488"
          }
        ]
      }
    ],
    "ghcndID": "USC00455488"
  },
  {
    "country": "US",
    "state": "MI",
    "latitude": 45.6527,
    "longitude": -84.4725,
    "name": "CHEBOYGAN, MI US",
    "elevation": 587.926528,
    "ICAO": "",
    "mindate": "1891-09-01",
    "maxdate": "2020-08-01",
    "isdID": "69026099999,99406199999",
    "ranges": [
      {
        "mindate": "1980-06-11",
        "maxdate": "2001-10-23",
        "latitude": 45.65,
        "longitude": -84.467,
        "name": "CHEBOYGAN",
        "elevation": "+0176.0",
        "ids": [
          {
            "type": "USAF",
            "id": "690260"
          },
          {
            "type": "WBAN",
            "id": "99999"
          },
          {
            "type": "ICAO",
            "id": ""
          },
          {
            "type": "isdID",
            "id": "69026099999"
          }
        ]
      },
      {
        "mindate": "2010-04-07",
        "maxdate": "2014-12-31",
        "latitude": 45.651,
        "longitude": -84.472,
        "name": "CHEYBOGAN GLOS WEATHER STATION",
        "elevation": "+0177.7",
        "ids": [
          {
            "type": "USAF",
            "id": "994061"
          },
          {
            "type": "WBAN",
            "id": "99999"
          },
          {
            "type": "ICAO",
            "id": ""
          },
          {
            "type": "isdID",
            "id": "99406199999"
          }
        ]
      },
      {
        "mindate": "1891-09-01",
        "maxdate": "2020-08-01",
        "latitude": 45.6527,
        "longitude": -84.4725,
        "name": "CHEBOYGAN, MI US",
        "elevation": 179.2,
        "ids": [
          {
            "type": "GHCND",
            "id": "USC00201492"
          }
        ]
      }
    ],
    "ghcndID": "USC00201492"
  },
  {
    "country": "US",
    "state": "TX",
    "latitude": 27.833,
    "longitude": -97.067,
    "name": "PORT ARANSAS",
    "elevation": 32.8084,
    "ICAO": "KRAS",
    "mindate": "1975-09-16",
    "maxdate": "2020-09-27",
    "isdID": "69029099999,72200899999,72251999999,99818499999",
    "ranges": [
      {
        "mindate": "1982-06-25",
        "maxdate": "2004-11-29",
        "latitude": 27.833,
        "longitude": -97.067,
        "name": "PORT ARANSAS",
        "elevation": "+0002.0",
        "ids": [
          {
            "type": "USAF",
            "id": "690290"
          },
          {
            "type": "WBAN",
            "id": "99999"
          },
          {
            "type": "ICAO",
            "id": ""
          },
          {
            "type": "isdID",
            "id": "69029099999"
          }
        ]
      },
      {
        "mindate": "2005-02-17",
        "maxdate": "2005-12-31",
        "latitude": 27.833,
        "longitude": -97.067,
        "name": "MUSTANG BEACH",
        "elevation": "+0002.0",
        "ids": [
          {
            "type": "USAF",
            "id": "722008"
          },
          {
            "type": "WBAN",
            "id": "99999"
          },
          {
            "type": "ICAO",
            "id": "KRAS"
          },
          {
            "type": "isdID",
            "id": "72200899999"
          }
        ]
      },
      {
        "mindate": "1975-09-16",
        "maxdate": "1986-06-24",
        "latitude": 27.83,
        "longitude": -97.07,
        "name": "PORT ARANSAS COAST GUARD STATION",
        "elevation": "+0001.0",
        "ids": [
          {
            "type": "USAF",
            "id": "722519"
          },
          {
            "type": "WBAN",
            "id": "99999"
          },
          {
            "type": "ICAO",
            "id": ""
          },
          {
            "type": "isdID",
            "id": "72251999999"
          }
        ]
      },
      {
        "mindate": "2010-01-01",
        "maxdate": "2020-09-27",
        "latitude": 27.833,
        "longitude": -97.067,
        "name": "PORT ARANSAS",
        "elevation": "+0010.0",
        "ids": [
          {
            "type": "USAF",
            "id": "998184"
          },
          {
            "type": "WBAN",
            "id": "99999"
          },
          {
            "type": "ICAO",
            "id": ""
          },
          {
            "type": "isdID",
            "id": "99818499999"
          }
        ]
      },
      {
        "mindate": "2008-09-01",
        "maxdate": "2013-09-01",
        "latitude": 27.834756,
        "longitude": -97.061018,
        "name": "PORT ARANSAS 1.3 ENE, TX US",
        "elevation": 1.5,
        "ids": [
          {
            "type": "GHCND",
            "id": "US1TXNU0011"
          }
        ]
      },
      {
        "mindate": "2011-11-01",
        "maxdate": "2012-04-01",
        "latitude": 27.83621,
        "longitude": -97.059204,
        "name": "PORT ARANSAS 1.5 ENE, TX US",
        "elevation": 1.5,
        "ids": [
          {
            "type": "GHCND",
            "id": "US1TXNU0049"
          }
        ]
      },
      {
        "mindate": "1986-01-01",
        "maxdate": "2019-05-01",
        "latitude": 27.8381,
        "longitude": -97.0593,
        "name": "PORT ARANSAS, TX US",
        "elevation": 3.7,
        "ids": [
          {
            "type": "GHCND",
            "id": "USC00417170"
          }
        ]
      }
    ],
    "ghcndID": "US1TXNU0011,US1TXNU0049,USC00417170"
  },
  {
    "country": "US",
    "state": "AZ",
    "latitude": 32.8356,
    "longitude": -114.3942,
    "name": "YUMA PROVING GROUND, AZ US",
    "elevation": 324.146992,
    "ICAO": "",
    "mindate": "1955-01-01",
    "maxdate": "2020-08-01",
    "isdID": "69031003125,99999903125",
    "ranges": [
      {
        "mindate": "1987-07-01",
        "maxdate": "1990-04-20",
        "latitude": 32.833,
        "longitude": -114.4,
        "name": "YUMA PROVING GROUND",
        "elevation": "+0098.8",
        "ids": [
          {
            "type": "USAF",
            "id": "690310"
          },
          {
            "type": "WBAN",
            "id": "03125"
          },
          {
            "type": "ICAO",
            "id": ""
          },
          {
            "type": "isdID",
            "id": "69031003125"
          }
        ]
      },
      {
        "mindate": "1955-01-01",
        "maxdate": "1963-01-01",
        "latitude": 32.833,
        "longitude": -114.4,
        "name": "YUMA PROVING GROUND",
        "elevation": "+0098.8",
        "ids": [
          {
            "type": "USAF",
            "id": "999999"
          },
          {
            "type": "WBAN",
            "id": "03125"
          },
          {
            "type": "ICAO",
            "id": ""
          },
          {
            "type": "isdID",
            "id": "99999903125"
          }
        ]
      },
      {
        "mindate": "1955-01-01",
        "maxdate": "2020-08-01",
        "latitude": 32.8356,
        "longitude": -114.3942,
        "name": "YUMA PROVING GROUND, AZ US",
        "elevation": 98.8,
        "ids": [
          {
            "type": "GHCND",
            "id": "USW00003125"
          }
        ]
      }
    ],
    "ghcndID": "USW00003125"
  },
  {
    "country": "US",
    "state": "FL",
    "latitude": 30.413218,
    "longitude": -86.663499,
    "name": "MARY ESTHER 0.4 WNW, FL US",
    "elevation": 48.884516,
    "ICAO": "",
    "mindate": "1983-08-11",
    "maxdate": "2010-03-01",
    "isdID": "69052499999,69275499999,69276499999,69325499999",
    "ranges": [
      {
        "mindate": "1991-03-15",
        "maxdate": "2002-05-16",
        "latitude": 30.417,
        "longitude": -86.667,
        "name": "2 CWSS TMQ-53",
        "elevation": "+0009.0",
        "ids": [
          {
            "type": "USAF",
            "id": "690524"
          },
          {
            "type": "WBAN",
            "id": "99999"
          },
          {
            "type": "ICAO",
            "id": ""
          },
          {
            "type": "isdID",
            "id": "69052499999"
          }
        ]
      },
      {
        "mindate": "1984-09-22",
        "maxdate": "1995-08-30",
        "latitude": 30.417,
        "longitude": -86.667,
        "name": "2 CWSS TMQ-53",
        "elevation": "+0011.0",
        "ids": [
          {
            "type": "USAF",
            "id": "692754"
          },
          {
            "type": "WBAN",
            "id": "99999"
          },
          {
            "type": "ICAO",
            "id": ""
          },
          {
            "type": "isdID",
            "id": "69275499999"
          }
        ]
      },
      {
        "mindate": "1984-09-25",
        "maxdate": "1985-02-05",
        "latitude": 30.417,
        "longitude": -86.667,
        "name": "2 CWSS TMQ-53",
        "elevation": "+0010.0",
        "ids": [
          {
            "type": "USAF",
            "id": "692764"
          },
          {
            "type": "WBAN",
            "id": "99999"
          },
          {
            "type": "ICAO",
            "id": ""
          },
          {
            "type": "isdID",
            "id": "69276499999"
          }
        ]
      },
      {
        "mindate": "1983-08-11",
        "maxdate": "2003-08-16",
        "latitude": 30.417,
        "longitude": -86.667,
        "name": "2 CWSS FMQ-22",
        "elevation": "+0008.0",
        "ids": [
          {
            "type": "USAF",
            "id": "693254"
          },
          {
            "type": "WBAN",
            "id": "99999"
          },
          {
            "type": "ICAO",
            "id": ""
          },
          {
            "type": "isdID",
            "id": "69325499999"
          }
        ]
      },
      {
        "mindate": "2007-12-01",
        "maxdate": "2010-03-01",
        "latitude": 30.413218,
        "longitude": -86.663499,
        "name": "MARY ESTHER 0.4 WNW, FL US",
        "elevation": 14.9,
        "ids": [
          {
            "type": "GHCND",
            "id": "US1FLOK0014"
          }
        ]
      }
    ],
    "ghcndID": "US1FLOK0014"
  },
  {
    "country": "US",
    "state": "MD",
    "latitude": 39.472,
    "longitude": -76.17,
    "name": "PHILLIPS ARMY AIRFIELD",
    "elevation": 57.08661599999999,
    "ICAO": "KAPG",
    "mindate": "1919-06-01",
    "maxdate": "2020-09-29",
    "isdID": "69117499999,72405713701,72405799999",
    "ranges": [
      {
        "mindate": "1936-10-01",
        "maxdate": "2003-08-16",
        "latitude": 39.467,
        "longitude": -76.167,
        "name": "ABERDEEN PVNG GRND",
        "elevation": "+0018.0",
        "ids": [
          {
            "type": "USAF",
            "id": "691174"
          },
          {
            "type": "WBAN",
            "id": "99999"
          },
          {
            "type": "ICAO",
            "id": ""
          },
          {
            "type": "isdID",
            "id": "69117499999"
          }
        ]
      },
      {
        "mindate": "2006-01-03",
        "maxdate": "2020-09-29",
        "latitude": 39.472,
        "longitude": -76.17,
        "name": "PHILLIPS ARMY AIRFIELD",
        "elevation": "+0017.4",
        "ids": [
          {
            "type": "USAF",
            "id": "724057"
          },
          {
            "type": "WBAN",
            "id": "13701"
          },
          {
            "type": "ICAO",
            "id": "KAPG"
          },
          {
            "type": "isdID",
            "id": "72405713701"
          }
        ]
      },
      {
        "mindate": "1977-07-01",
        "maxdate": "2005-12-28",
        "latitude": 39.467,
        "longitude": -76.167,
        "name": "PHILLIPS AAF",
        "elevation": "+0017.0",
        "ids": [
          {
            "type": "USAF",
            "id": "724057"
          },
          {
            "type": "WBAN",
            "id": "99999"
          },
          {
            "type": "ICAO",
            "id": "KAPG"
          },
          {
            "type": "isdID",
            "id": "72405799999"
          }
        ]
      },
      {
        "mindate": "1919-06-01",
        "maxdate": "2020-08-01",
        "latitude": 39.4716,
        "longitude": -76.1697,
        "name": "ABERDEEN PHILLIPS FIELD, MD US",
        "elevation": 17.4,
        "ids": [
          {
            "type": "GHCND",
            "id": "USW00013701"
          }
        ]
      }
    ],
    "ghcndID": "USW00013701"
  },
  {
    "country": "US",
    "state": "NV",
    "latitude": 39.417,
    "longitude": -118.717,
    "name": "FALLON NAS",
    "elevation": 3934.0552439999997,
    "ICAO": "KQAV",
    "mindate": "1945-03-01",
    "maxdate": "2020-09-28",
    "isdID": "69236499999,72488593102,99999993102,99999993123",
    "ranges": [
      {
        "mindate": "1978-10-27",
        "maxdate": "2002-05-01",
        "latitude": 39.417,
        "longitude": -118.7,
        "name": "FALLON NAS",
        "elevation": "+1199.0",
        "ids": [
          {
            "type": "USAF",
            "id": "692364"
          },
          {
            "type": "WBAN",
            "id": "99999"
          },
          {
            "type": "ICAO",
            "id": "KQAV"
          },
          {
            "type": "isdID",
            "id": "69236499999"
          }
        ]
      },
      {
        "mindate": "1973-01-01",
        "maxdate": "2020-09-28",
        "latitude": 39.417,
        "longitude": -118.717,
        "name": "FALLON NAS",
        "elevation": "+1199.1",
        "ids": [
          {
            "type": "USAF",
            "id": "724885"
          },
          {
            "type": "WBAN",
            "id": "93102"
          },
          {
            "type": "ICAO",
            "id": "KNFL"
          },
          {
            "type": "isdID",
            "id": "72488593102"
          }
        ]
      },
      {
        "mindate": "1945-03-01",
        "maxdate": "1972-12-31",
        "latitude": 39.417,
        "longitude": -118.717,
        "name": "FALLON NAAS",
        "elevation": "+1199.1",
        "ids": [
          {
            "type": "USAF",
            "id": "999999"
          },
          {
            "type": "WBAN",
            "id": "93102"
          },
          {
            "type": "ICAO",
            "id": "KNFL"
          },
          {
            "type": "isdID",
            "id": "99999993102"
          }
        ]
      },
      {
        "mindate": "1948-11-01",
        "maxdate": "1955-01-01",
        "latitude": 39.417,
        "longitude": -118.717,
        "name": "FALLON CAA AP",
        "elevation": "+1200.0",
        "ids": [
          {
            "type": "USAF",
            "id": "999999"
          },
          {
            "type": "WBAN",
            "id": "93123"
          },
          {
            "type": "ICAO",
            "id": ""
          },
          {
            "type": "isdID",
            "id": "99999993123"
          }
        ]
      },
      {
        "mindate": "1945-03-01",
        "maxdate": "2020-08-01",
        "latitude": 39.41667,
        "longitude": -118.71667,
        "name": "FALLON NAAS, NV US",
        "elevation": 1199.1,
        "ids": [
          {
            "type": "GHCND",
            "id": "USW00093102"
          }
        ]
      },
      {
        "mindate": "1950-04-01",
        "maxdate": "1954-12-01",
        "latitude": 39.41667,
        "longitude": -118.71667,
        "name": "FALLON CAA AIRPORT, NV US",
        "elevation": 1200,
        "ids": [
          {
            "type": "GHCND",
            "id": "USW00093123"
          }
        ]
      }
    ],
    "ghcndID": "USW00093102,USW00093123"
  },
  {
    "country": "US",
    "state": "NV",
    "latitude": 36.583,
    "longitude": -115.667,
    "name": "INDIAN SPRINGS AF A",
    "elevation": 3133.2022,
    "ICAO": "KQCR",
    "mindate": "1913-11-01",
    "maxdate": "2018-05-29",
    "isdID": "69258499999,74614199999",
    "ranges": [
      {
        "mindate": "1983-12-01",
        "maxdate": "1991-03-14",
        "latitude": 36.583,
        "longitude": -115.667,
        "name": "CREECH AFB TMOS-P",
        "elevation": "+0955.0",
        "ids": [
          {
            "type": "USAF",
            "id": "692584"
          },
          {
            "type": "WBAN",
            "id": "99999"
          },
          {
            "type": "ICAO",
            "id": "KQCR"
          },
          {
            "type": "isdID",
            "id": "69258499999"
          }
        ]
      },
      {
        "mindate": "2004-07-13",
        "maxdate": "2018-05-29",
        "latitude": 36.583,
        "longitude": -115.667,
        "name": "INDIAN SPRINGS AF A",
        "elevation": "+0955.0",
        "ids": [
          {
            "type": "USAF",
            "id": "746141"
          },
          {
            "type": "WBAN",
            "id": "99999"
          },
          {
            "type": "ICAO",
            "id": ""
          },
          {
            "type": "isdID",
            "id": "74614199999"
          }
        ]
      },
      {
        "mindate": "1913-11-01",
        "maxdate": "1964-06-01",
        "latitude": 36.58333,
        "longitude": -115.66667,
        "name": "INDIAN SPRINGS, NV US",
        "elevation": 955.9,
        "ids": [
          {
            "type": "GHCND",
            "id": "USC00263980"
          }
        ]
      }
    ],
    "ghcndID": "USC00263980"
  },
  {
    "country": "US",
    "state": "NC",
    "latitude": 34.683,
    "longitude": -77.033,
    "name": "BOGUE FIELD MARINE CORPS AUXILIARY FIELD",
    "elevation": 20.997376000000003,
    "ICAO": "KQWT",
    "mindate": "1980-10-01",
    "maxdate": "2020-09-28",
    "isdID": "69832499999,72309793743,99999993743",
    "ranges": [
      {
        "mindate": "1996-04-09",
        "maxdate": "1996-09-01",
        "latitude": 34.683,
        "longitude": -77.033,
        "name": "BOGUE FIELD MCALF",
        "elevation": "",
        "ids": [
          {
            "type": "USAF",
            "id": "698324"
          },
          {
            "type": "WBAN",
            "id": "99999"
          },
          {
            "type": "ICAO",
            "id": "KQWT"
          },
          {
            "type": "isdID",
            "id": "69832499999"
          }
        ]
      },
      {
        "mindate": "1987-05-04",
        "maxdate": "2020-09-28",
        "latitude": 34.683,
        "longitude": -77.033,
        "name": "BOGUE FIELD MARINE CORPS AUXILIARY FIELD",
        "elevation": "+0006.4",
        "ids": [
          {
            "type": "USAF",
            "id": "723097"
          },
          {
            "type": "WBAN",
            "id": "93743"
          },
          {
            "type": "ICAO",
            "id": "KNJM"
          },
          {
            "type": "isdID",
            "id": "72309793743"
          }
        ]
      },
      {
        "mindate": "1980-10-01",
        "maxdate": "1981-01-01",
        "latitude": 34.683,
        "longitude": -77.033,
        "name": "BOGUE FIELD MCAF",
        "elevation": "+0006.7",
        "ids": [
          {
            "type": "USAF",
            "id": "999999"
          },
          {
            "type": "WBAN",
            "id": "93743"
          },
          {
            "type": "ICAO",
            "id": "KNJM"
          },
          {
            "type": "isdID",
            "id": "99999993743"
          }
        ]
      },
      {
        "mindate": "1980-10-01",
        "maxdate": "2014-01-01",
        "latitude": 34.68333,
        "longitude": -77.03333,
        "name": "SWANSBORO BOGUE FIELD MCAF, NC US",
        "elevation": 6.4,
        "ids": [
          {
            "type": "GHCND",
            "id": "USW00093743"
          }
        ]
      }
    ],
    "ghcndID": "USW00093743"
  },
  {
    "country": "US",
    "state": "AZ",
    "latitude": 32.65,
    "longitude": -114.617,
    "name": "YUMA MCAS",
    "elevation": 212.92651600000002,
    "ICAO": "KNYL",
    "mindate": "1977-01-27",
    "maxdate": "2020-09-28",
    "isdID": "69960403145,72280503145,74003503145,74003599999",
    "ranges": [
      {
        "mindate": "1987-07-01",
        "maxdate": "2009-12-31",
        "latitude": 32.65,
        "longitude": -114.617,
        "name": "YUMA MCAS",
        "elevation": "+0064.9",
        "ids": [
          {
            "type": "USAF",
            "id": "699604"
          },
          {
            "type": "WBAN",
            "id": "03145"
          },
          {
            "type": "ICAO",
            "id": "KNYL"
          },
          {
            "type": "isdID",
            "id": "69960403145"
          }
        ]
      },
      {
        "mindate": "1977-01-27",
        "maxdate": "1987-06-30",
        "latitude": 32.65,
        "longitude": -114.617,
        "name": "YUMA MCAS",
        "elevation": "+0064.9",
        "ids": [
          {
            "type": "USAF",
            "id": "722805"
          },
          {
            "type": "WBAN",
            "id": "03145"
          },
          {
            "type": "ICAO",
            "id": "KNYL"
          },
          {
            "type": "isdID",
            "id": "72280503145"
          }
        ]
      },
      {
        "mindate": "2005-01-01",
        "maxdate": "2020-09-28",
        "latitude": 32.65,
        "longitude": -114.617,
        "name": "YUMA MCAS",
        "elevation": "+0064.9",
        "ids": [
          {
            "type": "USAF",
            "id": "740035"
          },
          {
            "type": "WBAN",
            "id": "03145"
          },
          {
            "type": "ICAO",
            "id": "KNYL"
          },
          {
            "type": "isdID",
            "id": "74003503145"
          }
        ]
      },
      {
        "mindate": "2018-01-01",
        "maxdate": "2018-05-16",
        "latitude": 32.616,
        "longitude": -114.6,
        "name": "YUMA MCAS",
        "elevation": "+0065.0",
        "ids": [
          {
            "type": "USAF",
            "id": "740035"
          },
          {
            "type": "WBAN",
            "id": "99999"
          },
          {
            "type": "ICAO",
            "id": "KNYL"
          },
          {
            "type": "isdID",
            "id": "74003599999"
          }
        ]
      },
      {
        "mindate": "1982-01-01",
        "maxdate": "2020-08-01",
        "latitude": 32.65,
        "longitude": -114.61667,
        "name": "YUMA MCAS, AZ US",
        "elevation": 64.9,
        "ids": [
          {
            "type": "GHCND",
            "id": "USW00003145"
          }
        ]
      }
    ],
    "ghcndID": "USW00003145"
  },
  {
    "country": "US",
    "state": "AK",
    "latitude": 60.785,
    "longitude": -148.839,
    "name": "PORTAGE GLACIER",
    "elevation": 103.01837599999999,
    "ICAO": "PATO",
    "mindate": "1972-11-01",
    "maxdate": "2020-09-28",
    "isdID": "70000126492,70000199999",
    "ranges": [
      {
        "mindate": "2006-01-01",
        "maxdate": "2020-09-28",
        "latitude": 60.785,
        "longitude": -148.839,
        "name": "PORTAGE GLACIER",
        "elevation": "+0031.4",
        "ids": [
          {
            "type": "USAF",
            "id": "700001"
          },
          {
            "type": "WBAN",
            "id": "26492"
          },
          {
            "type": "ICAO",
            "id": "PATO"
          },
          {
            "type": "isdID",
            "id": "70000126492"
          }
        ]
      },
      {
        "mindate": "2004-05-10",
        "maxdate": "2005-12-31",
        "latitude": 60.783,
        "longitude": -148.833,
        "name": "PORTAGE GLACIER",
        "elevation": "+0029.0",
        "ids": [
          {
            "type": "USAF",
            "id": "700001"
          },
          {
            "type": "WBAN",
            "id": "99999"
          },
          {
            "type": "ICAO",
            "id": "PATO"
          },
          {
            "type": "isdID",
            "id": "70000199999"
          }
        ]
      },
      {
        "mindate": "1972-11-01",
        "maxdate": "1993-06-01",
        "latitude": 60.785,
        "longitude": -148.83889,
        "name": "PORTAGE GLACIER VISITOR CENTER, AK US",
        "elevation": 31.4,
        "ids": [
          {
            "type": "GHCND",
            "id": "USC00507502"
          }
        ]
      },
      {
        "mindate": "1998-11-01",
        "maxdate": "2020-08-01",
        "latitude": 60.785,
        "longitude": -148.83889,
        "name": "PORTAGE GLACIER VISITOR CENTER, AK US",
        "elevation": 31.4,
        "ids": [
          {
            "type": "GHCND",
            "id": "USW00026492"
          }
        ]
      }
    ],
    "ghcndID": "USC00507502,USW00026492"
  },
  {
    "country": "US",
    "state": "AK",
    "latitude": 71.283,
    "longitude": -156.782,
    "name": "W POST-WILL ROGERS MEMORIAL AIRPORT",
    "elevation": 31.16798,
    "ICAO": "PABR",
    "mindate": "1901-09-01",
    "maxdate": "2020-09-28",
    "isdID": "70026027502",
    "ranges": [
      {
        "mindate": "1945-01-01",
        "maxdate": "2020-09-28",
        "latitude": 71.283,
        "longitude": -156.782,
        "name": "W POST-WILL ROGERS MEMORIAL AIRPORT",
        "elevation": "+0009.5",
        "ids": [
          {
            "type": "USAF",
            "id": "700260"
          },
          {
            "type": "WBAN",
            "id": "27502"
          },
          {
            "type": "ICAO",
            "id": "PABR"
          },
          {
            "type": "isdID",
            "id": "70026027502"
          }
        ]
      },
      {
        "mindate": "1901-09-01",
        "maxdate": "2020-09-01",
        "latitude": 71.2834,
        "longitude": -156.7815,
        "name": "BARROW AIRPORT, AK US",
        "elevation": 9.4,
        "ids": [
          {
            "type": "GHCND",
            "id": "USW00027502"
          }
        ]
      }
    ],
    "ghcndID": "USW00027502"
  },
  {
    "country": "US",
    "state": "AK",
    "latitude": 70.639,
    "longitude": -159.995,
    "name": "WAINWRIGHT AIRPORT",
    "elevation": 29.855643999999998,
    "ICAO": "PAWI",
    "mindate": "1935-10-01",
    "maxdate": "2020-09-27",
    "isdID": "70030027503,70030027508,70030099999,99999927503,99999927508",
    "ranges": [
      {
        "mindate": "1999-11-02",
        "maxdate": "2020-09-27",
        "latitude": 70.639,
        "longitude": -159.995,
        "name": "WAINWRIGHT AIRPORT",
        "elevation": "+0009.1",
        "ids": [
          {
            "type": "USAF",
            "id": "700300"
          },
          {
            "type": "WBAN",
            "id": "27503"
          },
          {
            "type": "ICAO",
            "id": "PAWI"
          },
          {
            "type": "isdID",
            "id": "70030027503"
          }
        ]
      },
      {
        "mindate": "1973-01-01",
        "maxdate": "1999-12-31",
        "latitude": 70.617,
        "longitude": -159.85,
        "name": "WAINWRIGHT (DEW)",
        "elevation": "+0027.0",
        "ids": [
          {
            "type": "USAF",
            "id": "700300"
          },
          {
            "type": "WBAN",
            "id": "27508"
          },
          {
            "type": "ICAO",
            "id": "PAWI"
          },
          {
            "type": "isdID",
            "id": "70030027508"
          }
        ]
      },
      {
        "mindate": "2000-01-01",
        "maxdate": "2004-12-31",
        "latitude": 70.617,
        "longitude": -159.85,
        "name": "WAINWRIGHT (DEW)",
        "elevation": "+0027.0",
        "ids": [
          {
            "type": "USAF",
            "id": "700300"
          },
          {
            "type": "WBAN",
            "id": "99999"
          },
          {
            "type": "ICAO",
            "id": "PAWI"
          },
          {
            "type": "isdID",
            "id": "70030099999"
          }
        ]
      },
      {
        "mindate": "1948-07-01",
        "maxdate": "2005-12-31",
        "latitude": 70.639,
        "longitude": -159.995,
        "name": "WAINWRIGHT AIRPORT",
        "elevation": "+0009.1",
        "ids": [
          {
            "type": "USAF",
            "id": "999999"
          },
          {
            "type": "WBAN",
            "id": "27503"
          },
          {
            "type": "ICAO",
            "id": "PAWI"
          },
          {
            "type": "isdID",
            "id": "99999927503"
          }
        ]
      },
      {
        "mindate": "1957-08-02",
        "maxdate": "1972-12-31",
        "latitude": 70.617,
        "longitude": -159.85,
        "name": "WAINWRIGHT LIZ 3",
        "elevation": "+0027.1",
        "ids": [
          {
            "type": "USAF",
            "id": "999999"
          },
          {
            "type": "WBAN",
            "id": "27508"
          },
          {
            "type": "ICAO",
            "id": "PAWI"
          },
          {
            "type": "isdID",
            "id": "99999927508"
          }
        ]
      },
      {
        "mindate": "1935-10-01",
        "maxdate": "2020-08-01",
        "latitude": 70.63917,
        "longitude": -159.995,
        "name": "WAINWRIGHT AIRPORT, AK US",
        "elevation": 9.1,
        "ids": [
          {
            "type": "GHCND",
            "id": "USW00027503"
          }
        ]
      }
    ],
    "ghcndID": "USW00027503"
  },
  {
    "country": "US",
    "state": "AK",
    "latitude": 52.22,
    "longitude": -174.206,
    "name": "ATKA AIRPORT",
    "elevation": 56.102364,
    "ICAO": "PAAK",
    "mindate": "1916-10-01",
    "maxdate": "2020-09-28",
    "isdID": "70063125715,74920599999,A0003225715",
    "ranges": [
      {
        "mindate": "2006-01-01",
        "maxdate": "2013-04-30",
        "latitude": 52.22,
        "longitude": -174.206,
        "name": "ATKA AIRPORT",
        "elevation": "+0017.1",
        "ids": [
          {
            "type": "USAF",
            "id": "700631"
          },
          {
            "type": "WBAN",
            "id": "25715"
          },
          {
            "type": "ICAO",
            "id": "PAAK"
          },
          {
            "type": "isdID",
            "id": "70063125715"
          }
        ]
      },
      {
        "mindate": "1944-02-08",
        "maxdate": "1949-11-19",
        "latitude": 52.216,
        "longitude": -174.2,
        "name": "ATKA ALASKA",
        "elevation": "+0011.0",
        "ids": [
          {
            "type": "USAF",
            "id": "749205"
          },
          {
            "type": "WBAN",
            "id": "99999"
          },
          {
            "type": "ICAO",
            "id": "ATK"
          },
          {
            "type": "isdID",
            "id": "74920599999"
          }
        ]
      },
      {
        "mindate": "2006-01-01",
        "maxdate": "2020-09-28",
        "latitude": 52.22,
        "longitude": -174.206,
        "name": "ATKA AIRPORT",
        "elevation": "+0017.1",
        "ids": [
          {
            "type": "USAF",
            "id": "A00032"
          },
          {
            "type": "WBAN",
            "id": "25715"
          },
          {
            "type": "ICAO",
            "id": "PAAK"
          },
          {
            "type": "isdID",
            "id": "A0003225715"
          }
        ]
      },
      {
        "mindate": "1916-10-01",
        "maxdate": "1949-08-01",
        "latitude": 52.22028,
        "longitude": -174.20611,
        "name": "ATKA AIRPORT, AK US",
        "elevation": 17.1,
        "ids": [
          {
            "type": "GHCND",
            "id": "USC00500433"
          }
        ]
      }
    ],
    "ghcndID": "USC00500433"
  },
  {
    "country": "US",
    "state": "AK",
    "latitude": 68.479,
    "longitude": -149.49,
    "name": "GALBRAITH LAKE AIRPORT",
    "elevation": 2666.010584,
    "ICAO": "PAGB",
    "mindate": "1970-10-01",
    "maxdate": "2020-05-04",
    "isdID": "70063526465,70063599999",
    "ranges": [
      {
        "mindate": "2006-01-05",
        "maxdate": "2020-05-04",
        "latitude": 68.479,
        "longitude": -149.49,
        "name": "GALBRAITH LAKE AIRPORT",
        "elevation": "+0812.6",
        "ids": [
          {
            "type": "USAF",
            "id": "700635"
          },
          {
            "type": "WBAN",
            "id": "26465"
          },
          {
            "type": "ICAO",
            "id": "PAGB"
          },
          {
            "type": "isdID",
            "id": "70063526465"
          }
        ]
      },
      {
        "mindate": "1975-01-08",
        "maxdate": "2005-12-29",
        "latitude": 68.483,
        "longitude": -149.483,
        "name": "GALBRAITH LAKE",
        "elevation": "+0814.0",
        "ids": [
          {
            "type": "USAF",
            "id": "700635"
          },
          {
            "type": "WBAN",
            "id": "99999"
          },
          {
            "type": "ICAO",
            "id": "PAGB"
          },
          {
            "type": "isdID",
            "id": "70063599999"
          }
        ]
      },
      {
        "mindate": "1970-10-01",
        "maxdate": "1980-08-01",
        "latitude": 68.47889,
        "longitude": -149.49,
        "name": "GALBRAITH LAKE AIRPORT, AK US",
        "elevation": 812.6,
        "ids": [
          {
            "type": "GHCND",
            "id": "USC00503210"
          }
        ]
      }
    ],
    "ghcndID": "USC00503210"
  },
  {
    "country": "US",
    "state": "AK",
    "latitude": 70.192,
    "longitude": -148.477,
    "name": "DEADHORSE AIRPORT",
    "elevation": 61.023624000000005,
    "ICAO": "PASC",
    "mindate": "1973-01-01",
    "maxdate": "2020-09-28",
    "isdID": "70063727406",
    "ranges": [
      {
        "mindate": "1973-01-01",
        "maxdate": "2020-09-28",
        "latitude": 70.192,
        "longitude": -148.477,
        "name": "DEADHORSE AIRPORT",
        "elevation": "+0018.6",
        "ids": [
          {
            "type": "USAF",
            "id": "700637"
          },
          {
            "type": "WBAN",
            "id": "27406"
          },
          {
            "type": "ICAO",
            "id": "PASC"
          },
          {
            "type": "isdID",
            "id": "70063727406"
          }
        ]
      },
      {
        "mindate": "1999-06-01",
        "maxdate": "2020-08-01",
        "latitude": 70.1917,
        "longitude": -148.4772,
        "name": "DEADHORSE, AK US",
        "elevation": 18.6,
        "ids": [
          {
            "type": "GHCND",
            "id": "USW00027406"
          }
        ]
      }
    ],
    "ghcndID": "USW00027406"
  },
  {
    "country": "US",
    "state": "AK",
    "latitude": 70.134,
    "longitude": -143.577,
    "name": "BARTER ISLAND AIRPORT",
    "elevation": 1.9685039999999998,
    "ICAO": "PABA",
    "mindate": "1947-10-01",
    "maxdate": "2020-09-10",
    "isdID": "70086027401,70086099999,70086399999,70086599999",
    "ranges": [
      {
        "mindate": "1947-10-01",
        "maxdate": "2020-09-10",
        "latitude": 70.134,
        "longitude": -143.577,
        "name": "BARTER ISLAND AIRPORT",
        "elevation": "+0000.6",
        "ids": [
          {
            "type": "USAF",
            "id": "700860"
          },
          {
            "type": "WBAN",
            "id": "27401"
          },
          {
            "type": "ICAO",
            "id": "PABA"
          },
          {
            "type": "isdID",
            "id": "70086027401"
          }
        ]
      },
      {
        "mindate": "2000-01-02",
        "maxdate": "2004-12-31",
        "latitude": 70.133,
        "longitude": -143.633,
        "name": "BARTER ISLAND",
        "elevation": "+0015.0",
        "ids": [
          {
            "type": "USAF",
            "id": "700860"
          },
          {
            "type": "WBAN",
            "id": "99999"
          },
          {
            "type": "ICAO",
            "id": "PABA"
          },
          {
            "type": "isdID",
            "id": "70086099999"
          }
        ]
      },
      {
        "mindate": "1990-11-04",
        "maxdate": "1991-06-21",
        "latitude": 70.134,
        "longitude": -143.577,
        "name": "BARTER ISLAND LRRS",
        "elevation": "+0001.5",
        "ids": [
          {
            "type": "USAF",
            "id": "700863"
          },
          {
            "type": "WBAN",
            "id": "99999"
          },
          {
            "type": "ICAO",
            "id": "PBTI"
          },
          {
            "type": "isdID",
            "id": "70086399999"
          }
        ]
      },
      {
        "mindate": "1973-12-07",
        "maxdate": "1996-10-09",
        "latitude": 70.133,
        "longitude": -143.583,
        "name": "BARTER ISLAND(AWOS)",
        "elevation": "+0002.0",
        "ids": [
          {
            "type": "USAF",
            "id": "700865"
          },
          {
            "type": "WBAN",
            "id": "99999"
          },
          {
            "type": "ICAO",
            "id": ""
          },
          {
            "type": "isdID",
            "id": "70086599999"
          }
        ]
      },
      {
        "mindate": "1947-10-01",
        "maxdate": "2019-11-01",
        "latitude": 70.13389,
        "longitude": -143.57694,
        "name": "BARTER ISLAND WEATHER SERVICE OFFICE AIRPORT, AK US",
        "elevation": 14.9,
        "ids": [
          {
            "type": "GHCND",
            "id": "USW00027401"
          }
        ]
      }
    ],
    "ghcndID": "USW00027401"
  },
  {
    "country": "US",
    "state": "AK",
    "latitude": 69.717,
    "longitude": -148.683,
    "name": "FRANKLIN BLUFFS",
    "elevation": 354.33072,
    "ICAO": "",
    "mindate": "1975-01-01",
    "maxdate": "1977-08-16",
    "isdID": "70086799999",
    "ranges": [
      {
        "mindate": "1975-01-08",
        "maxdate": "1977-08-16",
        "latitude": 69.717,
        "longitude": -148.683,
        "name": "FRANKLIN BLUFFS",
        "elevation": "+0108.0",
        "ids": [
          {
            "type": "USAF",
            "id": "700867"
          },
          {
            "type": "WBAN",
            "id": "99999"
          },
          {
            "type": "ICAO",
            "id": ""
          },
          {
            "type": "isdID",
            "id": "70086799999"
          }
        ]
      },
      {
        "mindate": "1975-01-01",
        "maxdate": "1977-07-01",
        "latitude": 69.71667,
        "longitude": -148.68333,
        "name": "FRANKLIN BLUFF, AK US",
        "ids": [
          {
            "type": "GHCND",
            "id": "USC00503184"
          }
        ]
      }
    ],
    "ghcndID": "USC00503184"
  },
  {
    "country": "US",
    "state": "AK",
    "latitude": 68.867,
    "longitude": -166.133,
    "name": "CAPE LISBURNE LRRS AIRPORT",
    "elevation": 16.076116000000003,
    "ICAO": "PALU",
    "mindate": "1952-08-29",
    "maxdate": "2020-09-28",
    "isdID": "70104026631,70104099999",
    "ranges": [
      {
        "mindate": "2006-01-01",
        "maxdate": "2020-09-28",
        "latitude": 68.867,
        "longitude": -166.133,
        "name": "CAPE LISBURNE LRRS AIRPORT",
        "elevation": "+0004.9",
        "ids": [
          {
            "type": "USAF",
            "id": "701040"
          },
          {
            "type": "WBAN",
            "id": "26631"
          },
          {
            "type": "ICAO",
            "id": "PALU"
          },
          {
            "type": "isdID",
            "id": "70104026631"
          }
        ]
      },
      {
        "mindate": "1952-08-29",
        "maxdate": "2005-12-31",
        "latitude": 68.883,
        "longitude": -166.133,
        "name": "CAPE LISBURNE AFS",
        "elevation": "+0003.0",
        "ids": [
          {
            "type": "USAF",
            "id": "701040"
          },
          {
            "type": "WBAN",
            "id": "99999"
          },
          {
            "type": "ICAO",
            "id": "PALU"
          },
          {
            "type": "isdID",
            "id": "70104099999"
          }
        ]
      },
      {
        "mindate": "1953-04-01",
        "maxdate": "1970-11-01",
        "latitude": 68.86667,
        "longitude": -166.13333,
        "name": "CAPE LISBURNE AFS, AK US",
        "elevation": 4.9,
        "ids": [
          {
            "type": "GHCND",
            "id": "USW00026631"
          }
        ]
      }
    ],
    "ghcndID": "USW00026631"
  },
  {
    "country": "US",
    "state": "AK",
    "latitude": 68.35,
    "longitude": -166.8,
    "name": "POINT HOPE AIRPORT",
    "elevation": 13.12336,
    "ICAO": "PAPO",
    "mindate": "1924-02-01",
    "maxdate": "2020-09-28",
    "isdID": "70104326623,70104399999",
    "ranges": [
      {
        "mindate": "2006-01-01",
        "maxdate": "2020-09-28",
        "latitude": 68.35,
        "longitude": -166.8,
        "name": "POINT HOPE AIRPORT",
        "elevation": "+0004.0",
        "ids": [
          {
            "type": "USAF",
            "id": "701043"
          },
          {
            "type": "WBAN",
            "id": "26623"
          },
          {
            "type": "ICAO",
            "id": "PAPO"
          },
          {
            "type": "isdID",
            "id": "70104326623"
          }
        ]
      },
      {
        "mindate": "1943-10-01",
        "maxdate": "2005-12-31",
        "latitude": 68.35,
        "longitude": -166.8,
        "name": "POINT HOPE AIRPORT",
        "elevation": "+0004.0",
        "ids": [
          {
            "type": "USAF",
            "id": "701043"
          },
          {
            "type": "WBAN",
            "id": "99999"
          },
          {
            "type": "ICAO",
            "id": "PAPO"
          },
          {
            "type": "isdID",
            "id": "70104399999"
          }
        ]
      },
      {
        "mindate": "1924-02-01",
        "maxdate": "1982-02-01",
        "latitude": 68.35,
        "longitude": -166.8,
        "name": "POINT HOPE AIRPORT, AK US",
        "elevation": 4,
        "ids": [
          {
            "type": "GHCND",
            "id": "USC00507431"
          }
        ]
      }
    ],
    "ghcndID": "USC00507431"
  },
  {
    "country": "US",
    "state": "AK",
    "latitude": 65.567,
    "longitude": -144.765,
    "name": "CENTRAL AIRPORT",
    "elevation": 919.9475359999999,
    "ICAO": "PACE",
    "mindate": "1905-10-01",
    "maxdate": "2013-02-10",
    "isdID": "70104626418,99999926418",
    "ranges": [
      {
        "mindate": "2002-09-02",
        "maxdate": "2013-02-10",
        "latitude": 65.567,
        "longitude": -144.765,
        "name": "CENTRAL AIRPORT",
        "elevation": "+0280.4",
        "ids": [
          {
            "type": "USAF",
            "id": "701046"
          },
          {
            "type": "WBAN",
            "id": "26418"
          },
          {
            "type": "ICAO",
            "id": "PACE"
          },
          {
            "type": "isdID",
            "id": "70104626418"
          }
        ]
      },
      {
        "mindate": "1948-07-01",
        "maxdate": "1948-09-01",
        "latitude": 65.567,
        "longitude": -144.765,
        "name": "CENTRAL NO 2",
        "elevation": "+0284.1",
        "ids": [
          {
            "type": "USAF",
            "id": "999999"
          },
          {
            "type": "WBAN",
            "id": "26418"
          },
          {
            "type": "ICAO",
            "id": "PACE"
          },
          {
            "type": "isdID",
            "id": "99999926418"
          }
        ]
      },
      {
        "mindate": "1905-10-01",
        "maxdate": "1954-05-01",
        "latitude": 65.5667,
        "longitude": -144.7653,
        "name": "CENTRAL NUMBER 2, AK US",
        "elevation": 280.4,
        "ids": [
          {
            "type": "GHCND",
            "id": "USC00501458"
          }
        ]
      },
      {
        "mindate": "1962-08-01",
        "maxdate": "2011-05-01",
        "latitude": 65.5667,
        "longitude": -144.7653,
        "name": "CENTRAL NUMBER 2, AK US",
        "elevation": 280.4,
        "ids": [
          {
            "type": "GHCND",
            "id": "USC00501466"
          }
        ]
      }
    ],
    "ghcndID": "USC00501458,USC00501466"
  },
  {
    "country": "US",
    "state": "AK",
    "latitude": 65.563,
    "longitude": -167.921,
    "name": "TIN CITY LRRS AIRPORT",
    "elevation": 270.99738399999995,
    "ICAO": "PATC",
    "mindate": "1953-05-04",
    "maxdate": "2020-09-28",
    "isdID": "70117026634,70117099999",
    "ranges": [
      {
        "mindate": "2006-01-01",
        "maxdate": "2020-09-28",
        "latitude": 65.563,
        "longitude": -167.921,
        "name": "TIN CITY LRRS AIRPORT",
        "elevation": "+0082.6",
        "ids": [
          {
            "type": "USAF",
            "id": "701170"
          },
          {
            "type": "WBAN",
            "id": "26634"
          },
          {
            "type": "ICAO",
            "id": "PATC"
          },
          {
            "type": "isdID",
            "id": "70117026634"
          }
        ]
      },
      {
        "mindate": "1953-05-04",
        "maxdate": "2005-12-31",
        "latitude": 65.567,
        "longitude": -167.917,
        "name": "TIN CITY AFS",
        "elevation": "+0083.0",
        "ids": [
          {
            "type": "USAF",
            "id": "701170"
          },
          {
            "type": "WBAN",
            "id": "99999"
          },
          {
            "type": "ICAO",
            "id": "PATC"
          },
          {
            "type": "isdID",
            "id": "70117099999"
          }
        ]
      },
      {
        "mindate": "1953-07-01",
        "maxdate": "1985-01-01",
        "latitude": 65.56306,
        "longitude": -167.92139,
        "name": "TIN CITY, AK US",
        "elevation": 82.6,
        "ids": [
          {
            "type": "GHCND",
            "id": "USW00026634"
          }
        ]
      }
    ],
    "ghcndID": "USW00026634"
  },
  {
    "country": "US",
    "state": "AK",
    "latitude": 65.254,
    "longitude": -166.859,
    "name": "PORT CLARENCE CGS",
    "elevation": 9.84252,
    "ICAO": "PAPC",
    "mindate": "1895-07-01",
    "maxdate": "2020-05-30",
    "isdID": "70119099999",
    "ranges": [
      {
        "mindate": "1973-01-01",
        "maxdate": "2020-05-30",
        "latitude": 65.254,
        "longitude": -166.859,
        "name": "PORT CLARENCE CGS",
        "elevation": "+0003.0",
        "ids": [
          {
            "type": "USAF",
            "id": "701190"
          },
          {
            "type": "WBAN",
            "id": "99999"
          },
          {
            "type": "ICAO",
            "id": "PAPC"
          },
          {
            "type": "isdID",
            "id": "70119099999"
          }
        ]
      },
      {
        "mindate": "1895-07-01",
        "maxdate": "1995-08-01",
        "latitude": 65.25,
        "longitude": -166.86667,
        "name": "PORT CLARENCE, AK US",
        "elevation": 3.7,
        "ids": [
          {
            "type": "GHCND",
            "id": "USC00507669"
          }
        ]
      }
    ],
    "ghcndID": "USC00507669"
  },
  {
    "country": "US",
    "state": "AK",
    "latitude": 66.25,
    "longitude": -166.089,
    "name": "SHISHMAREF/NEW AIRPORT",
    "elevation": 6.889764,
    "ICAO": "PASH",
    "mindate": "1919-10-01",
    "maxdate": "2020-02-27",
    "isdID": "70119526625,70119599999",
    "ranges": [
      {
        "mindate": "2006-01-01",
        "maxdate": "2020-02-27",
        "latitude": 66.25,
        "longitude": -166.089,
        "name": "SHISHMAREF/NEW AIRPORT",
        "elevation": "+0002.1",
        "ids": [
          {
            "type": "USAF",
            "id": "701195"
          },
          {
            "type": "WBAN",
            "id": "26625"
          },
          {
            "type": "ICAO",
            "id": "PASH"
          },
          {
            "type": "isdID",
            "id": "70119526625"
          }
        ]
      },
      {
        "mindate": "1983-11-04",
        "maxdate": "2005-12-31",
        "latitude": 66.25,
        "longitude": -166.083,
        "name": "SHISHMAREF",
        "elevation": "+0004.0",
        "ids": [
          {
            "type": "USAF",
            "id": "701195"
          },
          {
            "type": "WBAN",
            "id": "99999"
          },
          {
            "type": "ICAO",
            "id": "PASH"
          },
          {
            "type": "isdID",
            "id": "70119599999"
          }
        ]
      },
      {
        "mindate": "1919-10-01",
        "maxdate": "1973-11-01",
        "latitude": 66.24958,
        "longitude": -166.08936,
        "name": "SHISHMAREF AIRPORT, AK US",
        "elevation": 2.1,
        "ids": [
          {
            "type": "GHCND",
            "id": "USC00508437"
          }
        ]
      }
    ],
    "ghcndID": "USC00508437"
  },
  {
    "country": "US",
    "state": "AK",
    "latitude": 66.983,
    "longitude": -160.433,
    "name": "BOB BARKER MEMORIAL AIRPORT",
    "elevation": 167.97900800000002,
    "ICAO": "PAIK",
    "mindate": "1983-12-22",
    "maxdate": "2020-09-28",
    "isdID": "70119600102,70119699999",
    "ranges": [
      {
        "mindate": "2008-08-22",
        "maxdate": "2020-09-28",
        "latitude": 66.983,
        "longitude": -160.433,
        "name": "BOB BARKER MEMORIAL AIRPORT",
        "elevation": "+0051.2",
        "ids": [
          {
            "type": "USAF",
            "id": "701196"
          },
          {
            "type": "WBAN",
            "id": "00102"
          },
          {
            "type": "ICAO",
            "id": "PAIK"
          },
          {
            "type": "isdID",
            "id": "70119600102"
          }
        ]
      },
      {
        "mindate": "1983-12-22",
        "maxdate": "1985-06-30",
        "latitude": 66.976,
        "longitude": -160.437,
        "name": "BOB BAKER MEM",
        "elevation": "+0050.6",
        "ids": [
          {
            "type": "USAF",
            "id": "701196"
          },
          {
            "type": "WBAN",
            "id": "99999"
          },
          {
            "type": "ICAO",
            "id": "PAIK"
          },
          {
            "type": "isdID",
            "id": "70119699999"
          }
        ]
      },
      {
        "mindate": "1988-05-01",
        "maxdate": "2020-08-01",
        "latitude": 66.9767,
        "longitude": -160.4375,
        "name": "KIANA ALASKA, AK US",
        "elevation": 45.7,
        "ids": [
          {
            "type": "GHCND",
            "id": "USR0000AKIA"
          }
        ]
      }
    ],
    "ghcndID": "USR0000AKIA"
  },
  {
    "country": "US",
    "state": "AK",
    "latitude": 69.733,
    "longitude": -163.005,
    "name": "POINT LAY LRRS AIRPORT",
    "elevation": 24.934383999999998,
    "ICAO": "PPIZ",
    "mindate": "1941-09-01",
    "maxdate": "2020-09-28",
    "isdID": "70121026624,70121026638,70121099999",
    "ranges": [
      {
        "mindate": "2006-01-01",
        "maxdate": "2020-09-28",
        "latitude": 69.733,
        "longitude": -163.005,
        "name": "POINT LAY LRRS AIRPORT",
        "elevation": "+0007.6",
        "ids": [
          {
            "type": "USAF",
            "id": "701210"
          },
          {
            "type": "WBAN",
            "id": "26624"
          },
          {
            "type": "ICAO",
            "id": "PPIZ"
          },
          {
            "type": "isdID",
            "id": "70121026624"
          }
        ]
      },
      {
        "mindate": "1973-01-01",
        "maxdate": "1999-12-31",
        "latitude": 69.817,
        "longitude": -162.917,
        "name": "POINT LAY",
        "elevation": "+0006.0",
        "ids": [
          {
            "type": "USAF",
            "id": "701210"
          },
          {
            "type": "WBAN",
            "id": "26638"
          },
          {
            "type": "ICAO",
            "id": "PPIZ"
          },
          {
            "type": "isdID",
            "id": "70121026638"
          }
        ]
      },
      {
        "mindate": "2000-01-01",
        "maxdate": "2005-12-31",
        "latitude": 69.817,
        "longitude": -162.917,
        "name": "POINT LAY",
        "elevation": "+0006.0",
        "ids": [
          {
            "type": "USAF",
            "id": "701210"
          },
          {
            "type": "WBAN",
            "id": "99999"
          },
          {
            "type": "ICAO",
            "id": "PPIZ"
          },
          {
            "type": "isdID",
            "id": "70121099999"
          }
        ]
      },
      {
        "mindate": "1941-09-01",
        "maxdate": "1958-03-01",
        "latitude": 69.73288,
        "longitude": -163.00533,
        "name": "POINT LAY, AK US",
        "elevation": 7.6,
        "ids": [
          {
            "type": "GHCND",
            "id": "USC00507442"
          }
        ]
      }
    ],
    "ghcndID": "USC00507442"
  },
  {
    "country": "US",
    "state": "AK",
    "latitude": 66.069,
    "longitude": -162.764,
    "name": "DEERING AIRPORT",
    "elevation": 20.997376000000003,
    "ICAO": "PADE",
    "mindate": "1998-08-01",
    "maxdate": "2020-09-28",
    "isdID": "70133326643",
    "ranges": [
      {
        "mindate": "1999-01-02",
        "maxdate": "2020-09-28",
        "latitude": 66.069,
        "longitude": -162.764,
        "name": "DEERING AIRPORT",
        "elevation": "+0006.4",
        "ids": [
          {
            "type": "USAF",
            "id": "701333"
          },
          {
            "type": "WBAN",
            "id": "26643"
          },
          {
            "type": "ICAO",
            "id": "PADE"
          },
          {
            "type": "isdID",
            "id": "70133326643"
          }
        ]
      },
      {
        "mindate": "1998-08-01",
        "maxdate": "2020-09-01",
        "latitude": 66.06889,
        "longitude": -162.76389,
        "name": "DEERING AIRPORT, AK US",
        "elevation": 6.4,
        "ids": [
          {
            "type": "GHCND",
            "id": "USW00026643"
          }
        ]
      }
    ],
    "ghcndID": "USW00026643"
  },
  {
    "country": "US",
    "state": "AK",
    "latitude": 65.617,
    "longitude": -168.1,
    "name": "WALES AIRPORT",
    "elevation": 22.96588,
    "ICAO": "PAIW",
    "mindate": "1925-11-01",
    "maxdate": "2020-09-28",
    "isdID": "70133700103",
    "ranges": [
      {
        "mindate": "2009-01-22",
        "maxdate": "2020-09-28",
        "latitude": 65.617,
        "longitude": -168.1,
        "name": "WALES AIRPORT",
        "elevation": "+0007.0",
        "ids": [
          {
            "type": "USAF",
            "id": "701337"
          },
          {
            "type": "WBAN",
            "id": "00103"
          },
          {
            "type": "ICAO",
            "id": "PAIW"
          },
          {
            "type": "isdID",
            "id": "70133700103"
          }
        ]
      },
      {
        "mindate": "1925-11-01",
        "maxdate": "1995-08-01",
        "latitude": 65.62389,
        "longitude": -168.09917,
        "name": "WALES, AK US",
        "elevation": 7.6,
        "ids": [
          {
            "type": "GHCND",
            "id": "USW00026618"
          }
        ]
      }
    ],
    "ghcndID": "USW00026618"
  },
  {
    "country": "US",
    "state": "AK",
    "latitude": 67.732,
    "longitude": -164.548,
    "name": "KIVALINA AIRPORT",
    "elevation": 10.170604,
    "ICAO": "PAVL",
    "mindate": "1998-07-01",
    "maxdate": "2020-09-28",
    "isdID": "70148626642,70148699999",
    "ranges": [
      {
        "mindate": "2006-01-01",
        "maxdate": "2020-09-28",
        "latitude": 67.732,
        "longitude": -164.548,
        "name": "KIVALINA AIRPORT",
        "elevation": "+0003.1",
        "ids": [
          {
            "type": "USAF",
            "id": "701486"
          },
          {
            "type": "WBAN",
            "id": "26642"
          },
          {
            "type": "ICAO",
            "id": "PAVL"
          },
          {
            "type": "isdID",
            "id": "70148626642"
          }
        ]
      },
      {
        "mindate": "1999-01-14",
        "maxdate": "2005-12-31",
        "latitude": 67.733,
        "longitude": -164.55,
        "name": "KIVALINA",
        "elevation": "+0004.0",
        "ids": [
          {
            "type": "USAF",
            "id": "701486"
          },
          {
            "type": "WBAN",
            "id": "99999"
          },
          {
            "type": "ICAO",
            "id": "PAVL"
          },
          {
            "type": "isdID",
            "id": "70148699999"
          }
        ]
      },
      {
        "mindate": "1998-07-01",
        "maxdate": "2020-09-01",
        "latitude": 67.73167,
        "longitude": -164.54833,
        "name": "KIVALINA AIRPORT, AK US",
        "elevation": 3,
        "ids": [
          {
            "type": "GHCND",
            "id": "USW00026642"
          }
        ]
      }
    ],
    "ghcndID": "USW00026642"
  },
  {
    "country": "US",
    "state": "AK",
    "latitude": 69.37,
    "longitude": -152.1361,
    "name": "UMIAT AIRFIELD ALASKA, AK US",
    "elevation": 289.04200399999996,
    "ICAO": "PAUM",
    "mindate": "1945-04-01",
    "maxdate": "2020-08-01",
    "isdID": "70162026508",
    "ranges": [
      {
        "mindate": "1946-01-01",
        "maxdate": "2013-04-11",
        "latitude": 69.367,
        "longitude": -152.133,
        "name": "UMIAT",
        "elevation": "+0085.0",
        "ids": [
          {
            "type": "USAF",
            "id": "701620"
          },
          {
            "type": "WBAN",
            "id": "26508"
          },
          {
            "type": "ICAO",
            "id": "PAUM"
          },
          {
            "type": "isdID",
            "id": "70162026508"
          }
        ]
      },
      {
        "mindate": "2007-11-01",
        "maxdate": "2020-08-01",
        "latitude": 69.37,
        "longitude": -152.1361,
        "name": "UMIAT AIRFIELD ALASKA, AK US",
        "elevation": 88.1,
        "ids": [
          {
            "type": "GHCND",
            "id": "USR0000AUMI"
          }
        ]
      },
      {
        "mindate": "1945-04-01",
        "maxdate": "2001-04-01",
        "latitude": 69.36944,
        "longitude": -152.14,
        "name": "UMIAT AIRPORT, AK US",
        "elevation": 81.1,
        "ids": [
          {
            "type": "GHCND",
            "id": "USW00026508"
          }
        ]
      },
      {
        "mindate": "1953-07-01",
        "maxdate": "1955-02-01",
        "latitude": 69.36667,
        "longitude": -152.13333,
        "name": "UMIAT AFS, AK US",
        "elevation": 103.9,
        "ids": [
          {
            "type": "GHCND",
            "id": "USW00026537"
          }
        ]
      }
    ],
    "ghcndID": "USR0000AUMI,USW00026508,USW00026537"
  },
  {
    "country": "US",
    "state": "AK",
    "latitude": 68.167,
    "longitude": -151.767,
    "name": "ANAKTUVUK PASS AIRPORT",
    "elevation": 2100.065684,
    "ICAO": "PAKP",
    "mindate": "1953-07-01",
    "maxdate": "2020-09-28",
    "isdID": "70162526542,70162599999",
    "ranges": [
      {
        "mindate": "2006-01-01",
        "maxdate": "2020-09-28",
        "latitude": 68.167,
        "longitude": -151.767,
        "name": "ANAKTUVUK PASS AIRPORT",
        "elevation": "+0640.1",
        "ids": [
          {
            "type": "USAF",
            "id": "701625"
          },
          {
            "type": "WBAN",
            "id": "26542"
          },
          {
            "type": "ICAO",
            "id": "PAKP"
          },
          {
            "type": "isdID",
            "id": "70162526542"
          }
        ]
      },
      {
        "mindate": "1980-09-11",
        "maxdate": "2005-12-31",
        "latitude": 68.133,
        "longitude": -151.733,
        "name": "ANAKTUVUK PASS",
        "elevation": "+0641.0",
        "ids": [
          {
            "type": "USAF",
            "id": "701625"
          },
          {
            "type": "WBAN",
            "id": "99999"
          },
          {
            "type": "ICAO",
            "id": "PAKP"
          },
          {
            "type": "isdID",
            "id": "70162599999"
          }
        ]
      },
      {
        "mindate": "1953-07-01",
        "maxdate": "1973-08-01",
        "latitude": 68.16667,
        "longitude": -151.76667,
        "name": "ANAKTUVUK AUTO, AK US",
        "elevation": 640.1,
        "ids": [
          {
            "type": "GHCND",
            "id": "USC00500270"
          }
        ]
      }
    ],
    "ghcndID": "USC00500270"
  },
  {
    "country": "US",
    "state": "AK",
    "latitude": 66,
    "longitude": -153.7,
    "name": "INDIAN MOUNTAIN LRRS ARPT",
    "elevation": 1275.918676,
    "ICAO": "PAIM",
    "mindate": "1951-08-01",
    "maxdate": "2020-09-27",
    "isdID": "70173026535,70173099999",
    "ranges": [
      {
        "mindate": "2005-01-01",
        "maxdate": "2020-09-27",
        "latitude": 66,
        "longitude": -153.7,
        "name": "INDIAN MOUNTAIN LRRS ARPT",
        "elevation": "+0388.9",
        "ids": [
          {
            "type": "USAF",
            "id": "701730"
          },
          {
            "type": "WBAN",
            "id": "26535"
          },
          {
            "type": "ICAO",
            "id": "PAIM"
          },
          {
            "type": "isdID",
            "id": "70173026535"
          }
        ]
      },
      {
        "mindate": "1951-08-01",
        "maxdate": "2004-12-31",
        "latitude": 66,
        "longitude": -153.7,
        "name": "INDIAN MOUNTAIN AFS",
        "elevation": "+0389.0",
        "ids": [
          {
            "type": "USAF",
            "id": "701730"
          },
          {
            "type": "WBAN",
            "id": "99999"
          },
          {
            "type": "ICAO",
            "id": "PAIM"
          },
          {
            "type": "isdID",
            "id": "70173099999"
          }
        ]
      },
      {
        "mindate": "1951-12-01",
        "maxdate": "1970-12-01",
        "latitude": 66,
        "longitude": -153.7,
        "name": "INDIAN MOUNTAIN AFS, AK US",
        "elevation": 388.9,
        "ids": [
          {
            "type": "GHCND",
            "id": "USW00026535"
          }
        ]
      }
    ],
    "ghcndID": "USW00026535"
  },
  {
    "country": "US",
    "state": "AK",
    "latitude": 66.918,
    "longitude": -151.519,
    "name": "BETTLES AIRPORT",
    "elevation": 633.8582879999999,
    "ICAO": "PABT",
    "mindate": "1945-01-01",
    "maxdate": "2020-09-28",
    "isdID": "70174026533,99999926533",
    "ranges": [
      {
        "mindate": "1945-01-01",
        "maxdate": "2020-09-28",
        "latitude": 66.918,
        "longitude": -151.519,
        "name": "BETTLES AIRPORT",
        "elevation": "+0193.2",
        "ids": [
          {
            "type": "USAF",
            "id": "701740"
          },
          {
            "type": "WBAN",
            "id": "26533"
          },
          {
            "type": "ICAO",
            "id": "PABT"
          },
          {
            "type": "isdID",
            "id": "70174026533"
          }
        ]
      },
      {
        "mindate": "1952-01-01",
        "maxdate": "1972-12-31",
        "latitude": 66.54,
        "longitude": -151.31,
        "name": "BETTLES FIELD",
        "elevation": "+0196.0",
        "ids": [
          {
            "type": "USAF",
            "id": "999999"
          },
          {
            "type": "WBAN",
            "id": "26533"
          },
          {
            "type": "ICAO",
            "id": "PABT"
          },
          {
            "type": "isdID",
            "id": "99999926533"
          }
        ]
      },
      {
        "mindate": "1951-05-01",
        "maxdate": "2020-09-01",
        "latitude": 66.9175,
        "longitude": -151.5189,
        "name": "BETTLES AIRPORT, AK US",
        "elevation": 193.2,
        "ids": [
          {
            "type": "GHCND",
            "id": "USW00026533"
          }
        ]
      }
    ],
    "ghcndID": "USW00026533"
  },
  {
    "country": "US",
    "state": "AK",
    "latitude": 67.511,
    "longitude": -148.493,
    "name": "CHANDALAR LAKE AIRPORT",
    "elevation": 1895.0131840000001,
    "ICAO": "PALR",
    "mindate": "1963-07-01",
    "maxdate": "2014-10-09",
    "isdID": "70174526480,70174599999",
    "ranges": [
      {
        "mindate": "2006-01-01",
        "maxdate": "2014-10-09",
        "latitude": 67.511,
        "longitude": -148.493,
        "name": "CHANDALAR LAKE AIRPORT",
        "elevation": "+0577.6",
        "ids": [
          {
            "type": "USAF",
            "id": "701745"
          },
          {
            "type": "WBAN",
            "id": "26480"
          },
          {
            "type": "ICAO",
            "id": "PALR"
          },
          {
            "type": "isdID",
            "id": "70174526480"
          }
        ]
      },
      {
        "mindate": "1973-06-24",
        "maxdate": "2005-12-31",
        "latitude": 67.5,
        "longitude": -148.483,
        "name": "CHANDALAR LAKE",
        "elevation": "+0585.0",
        "ids": [
          {
            "type": "USAF",
            "id": "701745"
          },
          {
            "type": "WBAN",
            "id": "99999"
          },
          {
            "type": "ICAO",
            "id": "PALR"
          },
          {
            "type": "isdID",
            "id": "70174599999"
          }
        ]
      },
      {
        "mindate": "1968-11-01",
        "maxdate": "2011-05-01",
        "latitude": 67.5111,
        "longitude": -148.4925,
        "name": "CHANDALAR LAKE, AK US",
        "elevation": 577.6,
        "ids": [
          {
            "type": "GHCND",
            "id": "USC00501492"
          }
        ]
      },
      {
        "mindate": "1963-07-01",
        "maxdate": "1965-05-01",
        "latitude": 67.5111,
        "longitude": -148.4925,
        "name": "CHANDALAR LAKE, AK US",
        "elevation": 577.6,
        "ids": [
          {
            "type": "GHCND",
            "id": "USC00505354"
          }
        ]
      }
    ],
    "ghcndID": "USC00501492,USC00505354"
  },
  {
    "country": "US",
    "state": "AK",
    "latitude": 67.683,
    "longitude": -149.733,
    "name": "DIETRICK (PRIVATE)",
    "elevation": 1466.53548,
    "ICAO": "",
    "mindate": "1970-10-01",
    "maxdate": "1975-07-29",
    "isdID": "70174699999",
    "ranges": [
      {
        "mindate": "1973-08-25",
        "maxdate": "1975-07-29",
        "latitude": 67.683,
        "longitude": -149.733,
        "name": "DIETRICK (PRIVATE)",
        "elevation": "+0447.0",
        "ids": [
          {
            "type": "USAF",
            "id": "701746"
          },
          {
            "type": "WBAN",
            "id": "99999"
          },
          {
            "type": "ICAO",
            "id": ""
          },
          {
            "type": "isdID",
            "id": "70174699999"
          }
        ]
      },
      {
        "mindate": "1970-10-01",
        "maxdate": "1972-04-01",
        "latitude": 67.68333,
        "longitude": -149.73333,
        "name": "DIETRICH, AK US",
        "ids": [
          {
            "type": "GHCND",
            "id": "USC00502425"
          }
        ]
      }
    ],
    "ghcndID": "USC00502425"
  },
  {
    "country": "US",
    "state": "AK",
    "latitude": 65.175,
    "longitude": -152.107,
    "name": "RALPH M CALHOUN MEML ARPT",
    "elevation": 222.11286800000002,
    "ICAO": "PATA",
    "mindate": "1901-09-01",
    "maxdate": "2020-09-28",
    "isdID": "70178026529,99999926529",
    "ranges": [
      {
        "mindate": "1943-06-01",
        "maxdate": "2020-09-28",
        "latitude": 65.175,
        "longitude": -152.107,
        "name": "RALPH M CALHOUN MEML ARPT",
        "elevation": "+0067.7",
        "ids": [
          {
            "type": "USAF",
            "id": "701780"
          },
          {
            "type": "WBAN",
            "id": "26529"
          },
          {
            "type": "ICAO",
            "id": "PATA"
          },
          {
            "type": "isdID",
            "id": "70178026529"
          }
        ]
      },
      {
        "mindate": "1948-07-01",
        "maxdate": "1971-03-11",
        "latitude": 65.175,
        "longitude": -152.107,
        "name": "TANANA RALPH M CALHOUN MEM AP",
        "elevation": "+0067.1",
        "ids": [
          {
            "type": "USAF",
            "id": "999999"
          },
          {
            "type": "WBAN",
            "id": "26529"
          },
          {
            "type": "ICAO",
            "id": "PATA"
          },
          {
            "type": "isdID",
            "id": "99999926529"
          }
        ]
      },
      {
        "mindate": "1901-09-01",
        "maxdate": "2020-08-01",
        "latitude": 65.175,
        "longitude": -152.1067,
        "name": "TANANA AIRPORT, AK US",
        "elevation": 67.7,
        "ids": [
          {
            "type": "GHCND",
            "id": "USW00026529"
          }
        ]
      }
    ],
    "ghcndID": "USW00026529"
  },
  {
    "country": "US",
    "state": "AK",
    "latitude": 65.933,
    "longitude": -149.833,
    "name": "FIVE MILE CAMP",
    "elevation": 508.5302,
    "ICAO": "",
    "mindate": "1970-09-01",
    "maxdate": "1996-06-25",
    "isdID": "70179099999,70179599999,99999926539",
    "ranges": [
      {
        "mindate": "1977-11-03",
        "maxdate": "1985-05-31",
        "latitude": 65.933,
        "longitude": -149.833,
        "name": "FIVE MILE CAMP",
        "elevation": "+0155.0",
        "ids": [
          {
            "type": "USAF",
            "id": "701790"
          },
          {
            "type": "WBAN",
            "id": "99999"
          },
          {
            "type": "ICAO",
            "id": ""
          },
          {
            "type": "isdID",
            "id": "70179099999"
          }
        ]
      },
      {
        "mindate": "1973-08-25",
        "maxdate": "1996-06-25",
        "latitude": 65.933,
        "longitude": -149.833,
        "name": "FIVE MILE CAMP",
        "elevation": "+0155.0",
        "ids": [
          {
            "type": "USAF",
            "id": "701795"
          },
          {
            "type": "WBAN",
            "id": "99999"
          },
          {
            "type": "ICAO",
            "id": ""
          },
          {
            "type": "isdID",
            "id": "70179599999"
          }
        ]
      },
      {
        "mindate": "1974-11-01",
        "maxdate": "1975-11-01",
        "latitude": 66.083,
        "longitude": -150,
        "name": "FIVE MILE CAMP",
        "elevation": "+0134.1",
        "ids": [
          {
            "type": "USAF",
            "id": "999999"
          },
          {
            "type": "WBAN",
            "id": "26539"
          },
          {
            "type": "ICAO",
            "id": ""
          },
          {
            "type": "isdID",
            "id": "99999926539"
          }
        ]
      },
      {
        "mindate": "1970-09-01",
        "maxdate": "1980-08-01",
        "latitude": 65.93333,
        "longitude": -149.83333,
        "name": "FIVE MILE, AK US",
        "elevation": 153,
        "ids": [
          {
            "type": "GHCND",
            "id": "USC00503082"
          }
        ]
      }
    ],
    "ghcndID": "USC00503082"
  },
  {
    "country": "US",
    "state": "AK",
    "latitude": 64.999,
    "longitude": -150.638,
    "name": "MANLEY HOT SPRINGS",
    "elevation": 271.98163600000004,
    "ICAO": "PAML",
    "mindate": "1908-10-01",
    "maxdate": "2014-05-01",
    "isdID": "70179199999,70179326524,70179399999",
    "ranges": [
      {
        "mindate": "1943-12-04",
        "maxdate": "1989-10-13",
        "latitude": 65,
        "longitude": -150.65,
        "name": "MANLEY HOT SPRINGS",
        "elevation": "+0085.0",
        "ids": [
          {
            "type": "USAF",
            "id": "701791"
          },
          {
            "type": "WBAN",
            "id": "99999"
          },
          {
            "type": "ICAO",
            "id": ""
          },
          {
            "type": "isdID",
            "id": "70179199999"
          }
        ]
      },
      {
        "mindate": "2006-01-01",
        "maxdate": "2014-05-01",
        "latitude": 64.999,
        "longitude": -150.638,
        "name": "MANLEY HOT SPRINGS",
        "elevation": "+0082.9",
        "ids": [
          {
            "type": "USAF",
            "id": "701793"
          },
          {
            "type": "WBAN",
            "id": "26524"
          },
          {
            "type": "ICAO",
            "id": "PAML"
          },
          {
            "type": "isdID",
            "id": "70179326524"
          }
        ]
      },
      {
        "mindate": "1990-07-24",
        "maxdate": "2005-12-31",
        "latitude": 65,
        "longitude": -150.65,
        "name": "MANLEY HOT SPRINGS",
        "elevation": "+0081.0",
        "ids": [
          {
            "type": "USAF",
            "id": "701793"
          },
          {
            "type": "WBAN",
            "id": "99999"
          },
          {
            "type": "ICAO",
            "id": "PAML"
          },
          {
            "type": "isdID",
            "id": "70179399999"
          }
        ]
      },
      {
        "mindate": "1908-10-01",
        "maxdate": "2014-03-01",
        "latitude": 64.9988,
        "longitude": -150.638,
        "name": "MANLEY HOT SPRINGS, AK US",
        "elevation": 82.9,
        "ids": [
          {
            "type": "GHCND",
            "id": "USC00505644"
          }
        ]
      }
    ],
    "ghcndID": "USC00505644"
  },
  {
    "country": "US",
    "state": "AK",
    "latitude": 66.567,
    "longitude": -145.267,
    "name": "FORT YUKON AIRPORT",
    "elevation": 444.88190399999996,
    "ICAO": "PFYU",
    "mindate": "1899-01-01",
    "maxdate": "2020-09-28",
    "isdID": "70194026413,70194099999,99999926413",
    "ranges": [
      {
        "mindate": "1973-01-01",
        "maxdate": "2020-09-28",
        "latitude": 66.567,
        "longitude": -145.267,
        "name": "FORT YUKON AIRPORT",
        "elevation": "+0135.6",
        "ids": [
          {
            "type": "USAF",
            "id": "701940"
          },
          {
            "type": "WBAN",
            "id": "26413"
          },
          {
            "type": "ICAO",
            "id": "PFYU"
          },
          {
            "type": "isdID",
            "id": "70194026413"
          }
        ]
      },
      {
        "mindate": "2000-01-02",
        "maxdate": "2003-12-31",
        "latitude": 66.567,
        "longitude": -145.267,
        "name": "FORT YUKON",
        "elevation": "+0135.0",
        "ids": [
          {
            "type": "USAF",
            "id": "701940"
          },
          {
            "type": "WBAN",
            "id": "99999"
          },
          {
            "type": "ICAO",
            "id": "PFYU"
          },
          {
            "type": "isdID",
            "id": "70194099999"
          }
        ]
      },
      {
        "mindate": "1948-07-01",
        "maxdate": "1963-09-30",
        "latitude": 66.567,
        "longitude": -145.267,
        "name": "FORT YUKON",
        "elevation": "+0138.4",
        "ids": [
          {
            "type": "USAF",
            "id": "999999"
          },
          {
            "type": "WBAN",
            "id": "26413"
          },
          {
            "type": "ICAO",
            "id": "PFYU"
          },
          {
            "type": "isdID",
            "id": "99999926413"
          }
        ]
      },
      {
        "mindate": "2011-01-01",
        "maxdate": "2013-07-01",
        "latitude": 66.56639,
        "longitude": -145.26556,
        "name": "FORT YUKON NUMBER 2, AK US",
        "elevation": 133.5,
        "ids": [
          {
            "type": "GHCND",
            "id": "USC00503165"
          }
        ]
      },
      {
        "mindate": "1899-01-01",
        "maxdate": "1990-03-01",
        "latitude": 66.56667,
        "longitude": -145.26667,
        "name": "FORT YUKON, AK US",
        "elevation": 135.6,
        "ids": [
          {
            "type": "GHCND",
            "id": "USW00026413"
          }
        ]
      }
    ],
    "ghcndID": "USC00503165,USW00026413"
  },
  {
    "country": "US",
    "state": "AK",
    "latitude": 64.777,
    "longitude": -141.148,
    "name": "EAGLE AIRPORT",
    "elevation": 908.136512,
    "ICAO": "PAEG",
    "mindate": "1981-06-19",
    "maxdate": "2020-09-28",
    "isdID": "70197526422,70197599999,70222499999,99999926422",
    "ranges": [
      {
        "mindate": "2006-01-01",
        "maxdate": "2020-09-28",
        "latitude": 64.777,
        "longitude": -141.148,
        "name": "EAGLE AIRPORT",
        "elevation": "+0276.8",
        "ids": [
          {
            "type": "USAF",
            "id": "701975"
          },
          {
            "type": "WBAN",
            "id": "26422"
          },
          {
            "type": "ICAO",
            "id": "PAEG"
          },
          {
            "type": "isdID",
            "id": "70197526422"
          }
        ]
      },
      {
        "mindate": "1998-04-08",
        "maxdate": "2005-12-31",
        "latitude": 64.783,
        "longitude": -141.15,
        "name": "EAGLE AIRPORT",
        "elevation": "+0268.0",
        "ids": [
          {
            "type": "USAF",
            "id": "701975"
          },
          {
            "type": "WBAN",
            "id": "99999"
          },
          {
            "type": "ICAO",
            "id": "PAEG"
          },
          {
            "type": "isdID",
            "id": "70197599999"
          }
        ]
      },
      {
        "mindate": "1981-06-19",
        "maxdate": "1995-05-12",
        "latitude": 64.783,
        "longitude": -141.15,
        "name": "EAGLE AIRPORT",
        "elevation": "+0268.0",
        "ids": [
          {
            "type": "USAF",
            "id": "702224"
          },
          {
            "type": "WBAN",
            "id": "99999"
          },
          {
            "type": "ICAO",
            "id": ""
          },
          {
            "type": "isdID",
            "id": "70222499999"
          }
        ]
      },
      {
        "mindate": "1998-02-02",
        "maxdate": "2005-12-31",
        "latitude": 64.777,
        "longitude": -141.148,
        "name": "EAGLE AIRPORT",
        "elevation": "+0273.7",
        "ids": [
          {
            "type": "USAF",
            "id": "999999"
          },
          {
            "type": "WBAN",
            "id": "26422"
          },
          {
            "type": "ICAO",
            "id": "PAEG"
          },
          {
            "type": "isdID",
            "id": "99999926422"
          }
        ]
      },
      {
        "mindate": "1998-03-01",
        "maxdate": "2020-09-01",
        "latitude": 64.77667,
        "longitude": -141.14833,
        "name": "EAGLE AIRPORT, AK US",
        "elevation": 276.8,
        "ids": [
          {
            "type": "GHCND",
            "id": "USW00026422"
          }
        ]
      }
    ],
    "ghcndID": "USW00026422"
  },
  {
    "country": "US",
    "state": "AK",
    "latitude": 64.55,
    "longitude": -163.007,
    "name": "CAPE DARBY REMOT COM OUTLT",
    "elevation": 24.934383999999998,
    "ICAO": "PAGL",
    "mindate": "1941-07-01",
    "maxdate": "2020-09-28",
    "isdID": "70199526628,70199599999",
    "ranges": [
      {
        "mindate": "2005-01-01",
        "maxdate": "2020-09-28",
        "latitude": 64.55,
        "longitude": -163.007,
        "name": "CAPE DARBY REMOT COM OUTLT",
        "elevation": "+0007.6",
        "ids": [
          {
            "type": "USAF",
            "id": "701995"
          },
          {
            "type": "WBAN",
            "id": "26628"
          },
          {
            "type": "ICAO",
            "id": "PAGL"
          },
          {
            "type": "isdID",
            "id": "70199526628"
          }
        ]
      },