[
  {
    "elevation": 228.6,
    "mindate": "2012-07-05",
    "maxdate": "2019-11-06",
    "latitude": 44.377379,
    "name": "BETHEL 1.9 SSW, ME US",
    "datacoverage": 0.2175,
    "id": "US1MEOX0014",
    "elevationUnit": "METERS",
    "longitude": -70.801659
  },
  {
    "elevation": 285.3,
    "mindate": "2009-07-03",
    "maxdate": "2020-01-24",
    "latitude": 43.879283,
    "name": "MADISON 1.7 SE, NH US",
    "datacoverage": 0.9785,
    "id": "US1NHCR0009",
    "elevationUnit": "METERS",
    "longitude": -71.126633
  },
  {
    "elevation": 156.1,
    "mindate": "2009-07-04",
    "maxdate": "2020-01-25",
    "latitude": 44.03556,
    "name": "NORTH CONWAY 1.4 SSW, NH US",
    "datacoverage": 0.9611,
    "id": "US1NHCR0011",
    "elevationUnit": "METERS",
    "longitude": -71.140076
  },
  {
    "elevation": 209.7,
    "mindate": "2009-07-01",
    "maxdate": "2020-01-12",
    "latitude": 44.112796,
    "name": "INTERVALE 2.7 N, NH US",
    "datacoverage": 0.8514,
    "id": "US1NHCR0012",
    "elevationUnit": "METERS",
    "longitude": -71.139602
  },
  {
    "elevation": 355.4,
    "mindate": "2009-12-08",
    "maxdate": "2020-01-25",
    "latitude": 44.190694,
    "name": "JACKSON 3.7 NW, NH US",
    "datacoverage": 0.9084,
    "id": "US1NHCR0015",
    "elevationUnit": "METERS",
    "longitude": -71.225989
  },
  {
    "elevation": 201.2,
    "mindate": "2017-12-04",
    "maxdate": "2020-01-10",
    "latitude": 43.92648333,
    "name": "ALBANY 2.8 SW, NH US",
    "datacoverage": 0.599,
    "id": "US1NHCR0041",
    "elevationUnit": "METERS",
    "longitude": -71.21556667
  },
  {
    "elevation": 143.9,
    "mindate": "2018-07-21",
    "maxdate": "2019-09-15",
    "latitude": 43.840388,
    "name": "TAMWORTH 3.4 ESE, NH US",
    "datacoverage": 0.4976,
    "id": "US1NHCR0043",
    "elevationUnit": "METERS",
    "longitude": -71.195443
  },
  {
    "elevation": 354.8,
    "mindate": "2009-07-09",
    "maxdate": "2019-09-22",
    "latitude": 44.62395,
    "name": "DUMMER 4.3 NW, NH US",
    "datacoverage": 0.4182,
    "id": "US1NHCS0003",
    "elevationUnit": "METERS",
    "longitude": -71.314417
  },
  {
    "elevation": 372.5,
    "mindate": "2009-07-20",
    "maxdate": "2020-01-24",
    "latitude": 44.4763958,
    "name": "BERLIN 3.9 ESE, NH US",
    "datacoverage": 0.8058,
    "id": "US1NHCS0006",
    "elevationUnit": "METERS",
    "longitude": -71.1772647
  },
  {
    "elevation": 541,
    "mindate": "2008-10-06",
    "maxdate": "2020-01-25",
    "latitude": 44.388238,
    "name": "RANDOLPH 1.4 NE, NH US",
    "datacoverage": 0.9114,
    "id": "US1NHCS0010",
    "elevationUnit": "METERS",
    "longitude": -71.2695348
  },
  {
    "elevation": 384.4,
    "mindate": "2011-10-30",
    "maxdate": "2019-07-18",
    "latitude": 44.2353756,
    "name": "FRANCONIA 0.8 NE, NH US",
    "datacoverage": 0.8826,
    "id": "US1NHGR0023",
    "elevationUnit": "METERS",
    "longitude": -71.7387771
  },
  {
    "elevation": 269.4,
    "mindate": "2018-11-02",
    "maxdate": "2020-01-25",
    "latitude": 43.79048,
    "name": "PLYMOUTH 3.7 N, NH US",
    "datacoverage": 0.9178,
    "id": "US1NHGR0049",
    "elevationUnit": "METERS",
    "longitude": -71.68413
  },
  {
    "elevation": 292.9,
    "mindate": "2019-03-04",
    "maxdate": "2019-08-09",
    "latitude": 43.8095459,
    "name": "CAMPTON 2.0 ESE, NH US",
    "datacoverage": 0.8364,
    "id": "US1NHGR0050",
    "elevationUnit": "METERS",
    "longitude": -71.607186
  },
  {
    "elevation": 430.7,
    "mindate": "2009-03-26",
    "maxdate": "2020-01-25",
    "latitude": 44.5833,
    "name": "GRANBY 1.4 NW, VT US",
    "datacoverage": 0.2448,
    "id": "US1VTES0001",
    "elevationUnit": "METERS",
    "longitude": -71.7787
  },
  {
    "elevation": 448.7,
    "mindate": "2014-11-02",
    "maxdate": "2020-01-25",
    "latitude": 44.493245,
    "name": "LUNENBURG 2.3 NNW, VT US",
    "datacoverage": 0.9911,
    "id": "US1VTES0003",
    "elevationUnit": "METERS",
    "longitude": -71.704463
  },
  {
    "elevation": 280.4,
    "mindate": "1886-06-01",
    "maxdate": "2020-01-25",
    "latitude": 44.4535,
    "name": "BERLIN, NH US",
    "datacoverage": 0.7854,
    "id": "USC00270690",
    "elevationUnit": "METERS",
    "longitude": -71.18552
  },
  {
    "elevation": 341.4,
    "mindate": "1960-07-01",
    "maxdate": "2020-01-22",
    "latitude": 44.86102,
    "name": "COLEBROOK 3 SW, NH US",
    "datacoverage": 0.9273,
    "id": "USC00271647",
    "elevationUnit": "METERS",
    "longitude": -71.53921
  },
  {
    "elevation": 210.9,
    "mindate": "2011-01-16",
    "maxdate": "2020-01-25",
    "latitude": 43.8099,
    "name": "EAST SANDWICH, NH US",
    "datacoverage": 0.9906,
    "id": "USC00272303",
    "elevationUnit": "METERS",
    "longitude": -71.3425
  },
  {
    "elevation": 378,
    "mindate": "2016-08-01",
    "maxdate": "2020-01-02",
    "latitude": 44.7925,
    "name": "ERROL AIRPORT, NH US",
    "datacoverage": 0.9768,
    "id": "USC00272846",
    "elevationUnit": "METERS",
    "longitude": -71.1634
  },
  {
    "elevation": 243.8,
    "mindate": "2013-09-01",
    "maxdate": "2020-01-25",
    "latitude": 44.3933,
    "name": "GORHAM AIRPORT, NH US",
    "datacoverage": 0.9919,
    "id": "USC00273488",
    "elevationUnit": "METERS",
    "longitude": -71.1947
  },
  {
    "elevation": 1061.9,
    "mindate": "2016-12-18",
    "maxdate": "2019-04-07",
    "latitude": 44.2663,
    "name": "HARVARD CABIN SNOWPLOT, NH US",
    "datacoverage": 0.2949,
    "id": "USC00273856",
    "elevationUnit": "METERS",
    "longitude": -71.27793
  },
  {
    "elevation": 1142.7,
    "mindate": "2016-12-11",
    "maxdate": "2020-01-25",
    "latitude": 44.2613,
    "name": "HERMIT LAKE SNOWPLOT, NH US",
    "datacoverage": 0.539,
    "id": "USC00273860",
    "elevationUnit": "METERS",
    "longitude": -71.2833
  },
  {
    "elevation": 376.4,
    "mindate": "1963-08-01",
    "maxdate": "2020-01-24",
    "latitude": 44.4169,
    "name": "JEFFERSON, NH US",
    "datacoverage": 0.7571,
    "id": "USC00274329",
    "elevationUnit": "METERS",
    "longitude": -71.5008
  },
  {
    "elevation": 262.1,
    "mindate": "1892-10-01",
    "maxdate": "2020-01-25",
    "latitude": 44.49576,
    "name": "LANCASTER, NH US",
    "datacoverage": 0.6758,
    "id": "USC00274556",
    "elevationUnit": "METERS",
    "longitude": -71.57668
  },
  {
    "elevation": 159.1,
    "mindate": "1974-03-01",
    "maxdate": "2020-01-25",
    "latitude": 44.0562,
    "name": "NORTH CONWAY, NH US",
    "datacoverage": 0.9962,
    "id": "USC00275995",
    "elevationUnit": "METERS",
    "longitude": -71.1297
  },
  {
    "elevation": 289.6,
    "mindate": "1902-11-01",
    "maxdate": "2020-01-25",
    "latitude": 44.68199,
    "name": "NORTH STRATFORD, NH US",
    "datacoverage": 0.5794,
    "id": "USC00276234",
    "elevationUnit": "METERS",
    "longitude": -71.58575
  },
  {
    "elevation": 617.2,
    "mindate": "1930-01-01",
    "maxdate": "2020-01-25",
    "latitude": 44.258,
    "name": "PINKHAM NOTCH, NH US",
    "datacoverage": 0.9878,
    "id": "USC00276818",
    "elevationUnit": "METERS",
    "longitude": -71.2525
  },
  {
    "elevation": 435.6,
    "mindate": "2016-08-01",
    "maxdate": "2020-01-25",
    "latitude": 43.9459,
    "name": "WATERVILLE VALLEY NEPP, NH US",
    "datacoverage": 1,
    "id": "USC00278961",
    "elevationUnit": "METERS",
    "longitude": -71.511
  },
  {
    "elevation": 463,
    "mindate": "1931-01-11",
    "maxdate": "2019-11-30",
    "latitude": 44.50673,
    "name": "YORK POND, NH US",
    "datacoverage": 0.8513,
    "id": "USC00279966",
    "elevationUnit": "METERS",
    "longitude": -71.33357
  },
  {
    "elevation": 256,
    "mindate": "1930-05-01",
    "maxdate": "2020-01-19",
    "latitude": 44.4112,
    "name": "GILMAN, VT US",
    "datacoverage": 0.9318,
    "id": "USC00433341",
    "elevationUnit": "METERS",
    "longitude": -71.7186
  },
  {
    "elevation": 140.2,
    "mindate": "2003-03-24",
    "maxdate": "2020-01-25",
    "latitude": 43.9806,
    "name": "WHITE MOUNTAIN NF NEW HAMPSHIR, NH US",
    "datacoverage": 0.9706,
    "id": "USR0000NWMT",
    "elevationUnit": "METERS",
    "longitude": -71.1406
  },
  {
    "elevation": 379.5,
    "mindate": "2003-07-30",
    "maxdate": "2020-01-25",
    "latitude": 44.77,
    "name": "NULHEGAN VERMONT, VT US",
    "datacoverage": 0.9917,
    "id": "USR0000VNUL",
    "elevationUnit": "METERS",
    "longitude": -71.7017
  },
  {
    "elevation": 135.6,
    "mindate": "1996-07-01",
    "maxdate": "2020-01-24",
    "latitude": 43.99056,
    "name": "FRYEBURG EASTERN SLOPES REGL AIRPORT, ME US",
    "datacoverage": 0.994,
    "id": "USW00054772",
    "elevationUnit": "METERS",
    "longitude": -70.9475
  },
  {
    "elevation": 353,
    "mindate": "1996-07-01",
    "maxdate": "2020-01-24",
    "latitude": 44.57611,
    "name": "BERLIN MUNICIPAL AIRPORT, NH US",
    "datacoverage": 0.9947,
    "id": "USW00094700",
    "elevationUnit": "METERS",
    "longitude": -71.17861
  },
  {
    "elevation": 410,
    "mindate": "2006-04-07",
    "maxdate": "2020-01-10",
    "latitude": 40.118,
    "name": "DILLER 3.0 E, NE US",
    "datacoverage": 0.9956,
    "id": "US10gage022",
    "elevationUnit": "METERS",
    "longitude": -96.879
  },
  {
    "elevation": 35.4,
    "mindate": "2015-09-30",
    "maxdate": "2020-01-18",
    "latitude": 61.1529,
    "name": "ANCHORAGE 4.7 SSW, AK US",
    "datacoverage": 1,
    "id": "US1AKAB0052",
    "elevationUnit": "METERS",
    "longitude": -149.9346
  },
  {
    "elevation": 132.6,
    "mindate": "2011-09-30",
    "maxdate": "2020-01-19",
    "latitude": 61.61847,
    "name": "PALMER 1.7 WNW, AK US",
    "datacoverage": 0.9977,
    "id": "US1AKMS0011",
    "elevationUnit": "METERS",
    "longitude": -149.12576
  },
  {
    "elevation": 32.9,
    "mindate": "2007-10-15",
    "maxdate": "2020-01-20",
    "latitude": 30.548289,
    "name": "FAIRHOPE 2.3 N, AL US",
    "datacoverage": 0.9973,
    "id": "US1ALBW0001",
    "elevationUnit": "METERS",
    "longitude": -87.888701
  },
  {
    "elevation": 31.7,
    "mindate": "2014-08-21",
    "maxdate": "2020-01-19",
    "latitude": 30.516588,
    "name": "FAIRHOPE 2.2 E, AL US",
    "datacoverage": 0.9954,
    "id": "US1ALBW0071",
    "elevationUnit": "METERS",
    "longitude": -87.847389
  },
  {
    "elevation": 274.3,
    "mindate": "2008-07-01",
    "maxdate": "2020-01-20",
    "latitude": 34.443141,
    "name": "FORT PAYNE 1.4 WSW, AL US",
    "datacoverage": 0.9988,
    "id": "US1ALDK0009",
    "elevationUnit": "METERS",
    "longitude": -85.715898
  },
  {
    "elevation": 171.6,
    "mindate": "2008-05-26",
    "maxdate": "2020-01-15",
    "latitude": 32.678426,
    "name": "WETUMPKA 9.9 NNE, AL US",
    "datacoverage": 0.9953,
    "id": "US1ALEL0018",
    "elevationUnit": "METERS",
    "longitude": -86.140235
  },
  {
    "elevation": 463,
    "mindate": "2007-11-26",
    "maxdate": "2020-01-20",
    "latitude": 34.734519,
    "name": "WOODVILLE 8.0 NNE, AL US",
    "datacoverage": 0.9984,
    "id": "US1ALJC0012",
    "elevationUnit": "METERS",
    "longitude": -86.210018
  },
  {
    "elevation": 193.9,
    "mindate": "2007-10-19",
    "maxdate": "2020-01-20",
    "latitude": 34.66892,
    "name": "HAMPTON COVE 1.0 NW, AL US",
    "datacoverage": 0.9953,
    "id": "US1ALMD0042",
    "elevationUnit": "METERS",
    "longitude": -86.49463
  },
  {
    "elevation": 158.8,
    "mindate": "2008-11-16",
    "maxdate": "2020-01-20",
    "latitude": 32.032274,
    "name": "RAMER 1.5 SE, AL US",
    "datacoverage": 0.9978,
    "id": "US1ALMY0006",
    "elevationUnit": "METERS",
    "longitude": -86.205587
  },
  {
    "elevation": 63.4,
    "mindate": "2018-08-21",
    "maxdate": "2020-01-20",
    "latitude": 32.37835,
    "name": "MONTGOMERY 8.8 E, AL US",
    "datacoverage": 0.9981,
    "id": "US1ALMY0014",
    "elevationUnit": "METERS",
    "longitude": -86.13699
  },
  {
    "elevation": 253,
    "mindate": "2009-04-07",
    "maxdate": "2020-01-19",
    "latitude": 33.203389,
    "name": "ROANOKE 4.2 NNE, AL US",
    "datacoverage": 0.9995,
    "id": "US1ALRN0002",
    "elevationUnit": "METERS",
    "longitude": -85.348472
  },
  {
    "elevation": 419.4,
    "mindate": "2009-09-29",
    "maxdate": "2020-01-20",
    "latitude": 36.327549,
    "name": "DECATUR 2.6 ESE, AR US",
    "datacoverage": 0.9987,
    "id": "US1ARBT0012",
    "elevationUnit": "METERS",
    "longitude": -94.413031
  },
  {
    "elevation": 376.4,
    "mindate": "2016-01-01",
    "maxdate": "2020-01-18",
    "latitude": 36.2787704467773,
    "name": "BENTONVILLE 6.6 SSW, AR US",
    "datacoverage": 0.9959,
    "id": "US1ARBT0045",
    "elevationUnit": "METERS",
    "longitude": -94.2437057495117
  },
  {
    "elevation": 265.5,
    "mindate": "2019-03-08",
    "maxdate": "2020-01-20",
    "latitude": 35.446719,
    "name": "HEBER SPRINGS 5.5 SE, AR US",
    "datacoverage": 1,
    "id": "US1ARCB0010",
    "elevationUnit": "METERS",
    "longitude": -91.96551
  },
  {
    "elevation": 158.8,
    "mindate": "2015-06-08",
    "maxdate": "2020-01-18",
    "latitude": 34.46006393,
    "name": "HOT SPRINGS 2.3 S, AR US",
    "datacoverage": 0.997,
    "id": "US1ARGL0016",
    "elevationUnit": "METERS",
    "longitude": -93.04961395
  },
  {
    "elevation": 90.8,
    "mindate": "2009-05-01",
    "maxdate": "2020-01-20",
    "latitude": 34.964631,
    "name": "AUSTIN 2.5 SSE, AR US",
    "datacoverage": 0.999,
    "id": "US1ARLK0001",
    "elevationUnit": "METERS",
    "longitude": -91.965714
  },
  {
    "elevation": 123.7,
    "mindate": "2012-01-01",
    "maxdate": "2020-01-20",
    "latitude": 36.02228,
    "name": "SMITHVILLE 4.4 SSE, AR US",
    "datacoverage": 0.998,
    "id": "US1ARLW0002",
    "elevationUnit": "METERS",
    "longitude": -91.27124
  },
  {
    "elevation": 107.9,
    "mindate": "2012-06-12",
    "maxdate": "2020-01-19",
    "latitude": 34.033057,
    "name": "DELIGHT 0.3 NNW, AR US",
    "datacoverage": 0.9957,
    "id": "US1ARPK0001",
    "elevationUnit": "METERS",
    "longitude": -93.506937
  },
  {
    "elevation": 356.9,
    "mindate": "2015-12-11",
    "maxdate": "2020-01-20",
    "latitude": 34.596627,
    "name": "MENA 1.2 NNE, AR US",
    "datacoverage": 1,
    "id": "US1ARPL0006",
    "elevationUnit": "METERS",
    "longitude": -94.229619
  },
  {
    "elevation": 106.1,
    "mindate": "2012-07-19",
    "maxdate": "2020-01-20",
    "latitude": 34.892348,
    "name": "SHERWOOD 4.6 NNW, AR US",
    "datacoverage": 0.9953,
    "id": "US1ARPS0026",
    "elevationUnit": "METERS",
    "longitude": -92.243897
  },
  {
    "elevation": 155.4,
    "mindate": "2013-06-01",
    "maxdate": "2020-01-10",
    "latitude": 34.82398,
    "name": "NORTH LITTLE ROCK 2.5 N, AR US",
    "datacoverage": 0.9967,
    "id": "US1ARPS0058",
    "elevationUnit": "METERS",
    "longitude": -92.25307
  },
  {
    "elevation": 172.8,
    "mindate": "2017-08-31",
    "maxdate": "2020-01-20",
    "latitude": 36.2407,
    "name": "ASH FLAT 1.3 NE, AR US",
    "datacoverage": 1,
    "id": "US1ARSH0019",
    "elevationUnit": "METERS",
    "longitude": -91.5922
  },
  {
    "elevation": 130.1,
    "mindate": "2014-05-22",
    "maxdate": "2020-01-20",
    "latitude": 34.536,
    "name": "BENTON 10.9 WSW, AR US",
    "datacoverage": 0.9986,
    "id": "US1ARSL0023",
    "elevationUnit": "METERS",
    "longitude": -92.76508
  },
  {
    "elevation": 106.4,
    "mindate": "2018-10-09",
    "maxdate": "2020-01-20",
    "latitude": 34.606697,
    "name": "SHANNON HILLS 2.2 ESE, AR US",
    "datacoverage": 0.9957,
    "id": "US1ARSL0035",
    "elevationUnit": "METERS",
    "longitude": -92.374671
  },
  {
    "elevation": 85.3,
    "mindate": "2018-11-07",
    "maxdate": "2020-01-12",
    "latitude": 34.56606,
    "name": "LITTLE ROCK 11.1 SSE, AR US",
    "datacoverage": 0.9977,
    "id": "US1ARSL0036",
    "elevationUnit": "METERS",
    "longitude": -92.31321
  },
  {
    "elevation": 1391.7,
    "mindate": "2009-12-06",
    "maxdate": "2020-01-20",
    "latitude": 31.5489898005297,
    "name": "SIERRA VISTA 1.3 E, AZ US",
    "datacoverage": 0.9951,
    "id": "US1AZCH0017",
    "elevationUnit": "METERS",
    "longitude": -110.277607440948
  },
  {
    "elevation": 1251.5,
    "mindate": "2017-06-07",
    "maxdate": "2020-01-17",
    "latitude": 31.458302,
    "name": "DOUGLAS 8.8 NNW, AZ US",
    "datacoverage": 0.9979,
    "id": "US1AZCH0069",
    "elevationUnit": "METERS",
    "longitude": -109.596941
  },
  {
    "elevation": 1063.1,
    "mindate": "2016-07-27",
    "maxdate": "2020-01-20",
    "latitude": 35.612592,
    "name": "DOLAN SPRINGS 1.4 NNE, AZ US",
    "datacoverage": 0.9969,
    "id": "US1AZMH0027",
    "elevationUnit": "METERS",
    "longitude": -114.26617
  },
  {
    "elevation": 361.2,
    "mindate": "2009-11-15",
    "maxdate": "2020-01-15",
    "latitude": 33.340431,
    "name": "TEMPE 3.3 S, AZ US",
    "datacoverage": 0.996,
    "id": "US1AZMR0032",
    "elevationUnit": "METERS",
    "longitude": -111.930331
  },
  {
    "elevation": 373.4,
    "mindate": "2009-09-29",
    "maxdate": "2020-01-14",
    "latitude": 33.374088,
    "name": "GILBERT 3.8 NW, AZ US",
    "datacoverage": 0.9952,
    "id": "US1AZMR0075",
    "elevationUnit": "METERS",
    "longitude": -111.805307
  },
  {
    "elevation": 340.8,
    "mindate": "2009-10-11",
    "maxdate": "2020-01-18",
    "latitude": 33.33644,
    "name": "LAVEEN 3.0 SE, AZ US",
    "datacoverage": 0.9976,
    "id": "US1AZMR0111",
    "elevationUnit": "METERS",
    "longitude": -112.149714
  },
  {
    "elevation": 385.6,
    "mindate": "2009-09-28",
    "maxdate": "2020-01-19",
    "latitude": 33.221277,
    "name": "CHANDLER 6.6 SE, AZ US",
    "datacoverage": 0.996,
    "id": "US1AZMR0157",
    "elevationUnit": "METERS",
    "longitude": -111.775611
  },
  {
    "elevation": 363.3,
    "mindate": "2009-09-22",
    "maxdate": "2020-01-19",
    "latitude": 33.5511,
    "name": "PHOENIX 8.8 NNW, AZ US",
    "datacoverage": 0.9976,
    "id": "US1AZMR0211",
    "elevationUnit": "METERS",
    "longitude": -112.14659
  },
  {
    "elevation": 395.3,
    "mindate": "2009-09-20",
    "maxdate": "2020-01-20",
    "latitude": 33.367131,
    "name": "GILBERT 3.6 ENE, AZ US",
    "datacoverage": 0.9984,
    "id": "US1AZMR0218",
    "elevationUnit": "METERS",
    "longitude": -111.720364
  },
  {
    "elevation": 365.5,
    "mindate": "2010-07-01",
    "maxdate": "2020-01-20",
    "latitude": 33.293836,
    "name": "PHOENIX 10.2 S, AZ US",
    "datacoverage": 0.9957,
    "id": "US1AZMR0313",
    "elevationUnit": "METERS",
    "longitude": -112.088809
  },
  {
    "elevation": 399.6,
    "mindate": "2011-05-01",
    "maxdate": "2020-01-20",
    "latitude": 33.350355,
    "name": "PHOENIX 6.3 SSW, AZ US",
    "datacoverage": 0.9984,
    "id": "US1AZMR0326",
    "elevationUnit": "METERS",
    "longitude": -112.094526
  },
  {
    "elevation": 543.2,
    "mindate": "2013-07-01",
    "maxdate": "2020-01-20",
    "latitude": 33.800591,
    "name": "CAVE CREEK 9.4 WSW, AZ US",
    "datacoverage": 1,
    "id": "US1AZMR0372",
    "elevationUnit": "METERS",
    "longitude": -112.109868
  },
  {
    "elevation": 367,
    "mindate": "2016-03-25",
    "maxdate": "2020-01-20",
    "latitude": 33.37021,
    "name": "MESA 4.3 SW, AZ US",
    "datacoverage": 0.9986,
    "id": "US1AZMR0442",
    "elevationUnit": "METERS",
    "longitude": -111.864501
  },
  {
    "elevation": 382.2,
    "mindate": "2016-08-13",
    "maxdate": "2020-01-20",
    "latitude": 33.5762748718262,
    "name": "WADDELL 0.2 W, AZ US",
    "datacoverage": 1,
    "id": "US1AZMR0448",
    "elevationUnit": "METERS",
    "longitude": -112.453590393066
  },
  {
    "elevation": 287.1,
    "mindate": "2017-02-04",
    "maxdate": "2020-01-20",
    "latitude": 33.39289,
    "name": "BUCKEYE 13.7 W, AZ US",
    "datacoverage": 0.9963,
    "id": "US1AZMR0466",
    "elevationUnit": "METERS",
    "longitude": -112.815469
  },
  {
    "elevation": 538.3,
    "mindate": "2017-04-01",
    "maxdate": "2020-01-20",
    "latitude": 33.576277286346,
    "name": "FOUNTAIN HILLS 3.6 SW, AZ US",
    "datacoverage": 0.999,
    "id": "US1AZMR0470",
    "elevationUnit": "METERS",
    "longitude": -111.75691924095
  },
  {
    "elevation": 2193,
    "mindate": "2009-09-28",
    "maxdate": "2020-01-19",
    "latitude": 34.110928,
    "name": "PINETOP LAKESIDE 4.0 ESE, AZ US",
    "datacoverage": 0.9979,
    "id": "US1AZNV0007",
    "elevationUnit": "METERS",
    "longitude": -109.900314
  },
  {
    "elevation": 2009.9,
    "mindate": "2018-09-17",
    "maxdate": "2020-01-20",
    "latitude": 34.189592,
    "name": "SHOW LOW 4.2 S, AZ US",
    "datacoverage": 0.9959,
    "id": "US1AZNV0042",
    "elevationUnit": "METERS",
    "longitude": -110.013096
  },
  {
    "elevation": 705.6,
    "mindate": "2009-08-24",
    "maxdate": "2020-01-19",
    "latitude": 32.276347,
    "name": "TUCSON 8.0 NW, AZ US",
    "datacoverage": 0.9984,
    "id": "US1AZPM0062",
    "elevationUnit": "METERS",
    "longitude": -110.990448
  },
  {
    "elevation": 805.9,
    "mindate": "2000-08-12",
    "maxdate": "2020-01-19",
    "latitude": 32.22607,
    "name": "TUCSON 5.8 ENE, AZ US",
    "datacoverage": 0.9996,
    "id": "US1AZPM0082",
    "elevationUnit": "METERS",
    "longitude": -110.79839
  },
  {
    "elevation": 886.1,
    "mindate": "2009-11-10",
    "maxdate": "2020-01-19",
    "latitude": 32.139041,
    "name": "TUCSON 10.5 ESE, AZ US",
    "datacoverage": 0.9992,
    "id": "US1AZPM0111",
    "elevationUnit": "METERS",
    "longitude": -110.76738
  },
  {
    "elevation": 713.5,
    "mindate": "2012-06-10",
    "maxdate": "2020-01-17",
    "latitude": 32.3585,
    "name": "TUCSON 12.3 NW, AZ US",
    "datacoverage": 0.9993,
    "id": "US1AZPM0206",
    "elevationUnit": "METERS",
    "longitude": -111.0515
  },
  {
    "elevation": 1020.5,
    "mindate": "2013-06-13",
    "maxdate": "2020-01-18",
    "latitude": 32.489208,
    "name": "CATALINA 2.5 ESE, AZ US",
    "datacoverage": 0.9967,
    "id": "US1AZPM0231",
    "elevationUnit": "METERS",
    "longitude": -110.884141
  },
  {
    "elevation": 758.6,
    "mindate": "2017-08-14",
    "maxdate": "2020-01-17",
    "latitude": 32.129715,
    "name": "VALENCIA WEST 1.1 E, AZ US",
    "datacoverage": 1,
    "id": "US1AZPM0318",
    "elevationUnit": "METERS",
    "longitude": -111.129873
  },
  {
    "elevation": 736.7,
    "mindate": "2018-06-02",
    "maxdate": "2020-01-17",
    "latitude": 32.2841,
    "name": "TUCSON 9.9 WNW, AZ US",
    "datacoverage": 1,
    "id": "US1AZPM0339",
    "elevationUnit": "METERS",
    "longitude": -111.0709
  },
  {
    "elevation": 912.6,
    "mindate": "2018-08-07",
    "maxdate": "2020-01-18",
    "latitude": 31.8731,
    "name": "GREEN VALLEY 1.4 NNW, AZ US",
    "datacoverage": 0.9981,
    "id": "US1AZPM0347",
    "elevationUnit": "METERS",
    "longitude": -111.00455
  },
  {
    "elevation": 735.2,
    "mindate": "2019-06-11",
    "maxdate": "2020-01-10",
    "latitude": 32.261755,
    "name": "TUCSON 2.9 N, AZ US",
    "datacoverage": 1,
    "id": "US1AZPM0365",
    "elevationUnit": "METERS",
    "longitude": -110.92942
  },
  {
    "elevation": 627.9,
    "mindate": "2018-10-01",
    "maxdate": "2020-01-20",
    "latitude": 33.29818,
    "name": "QUEEN VALLEY 0.2 E, AZ US",
    "datacoverage": 1,
    "id": "US1AZPN0077",
    "elevationUnit": "METERS",
    "longitude": -111.2866
  },
  {
    "elevation": 1184.8,
    "mindate": "2014-04-04",
    "maxdate": "2020-01-20",
    "latitude": 31.437,
    "name": "RIO RICO 4.4 WSW, AZ US",
    "datacoverage": 0.9976,
    "id": "US1AZSC0013",
    "elevationUnit": "METERS",
    "longitude": -111.0396
  },
  {
    "elevation": 986.6,
    "mindate": "2009-09-19",
    "maxdate": "2020-01-15",
    "latitude": 34.2821129,
    "name": "MAYER 8.5 SSE, AZ US",
    "datacoverage": 0.9984,
    "id": "US1AZYV0005",
    "elevationUnit": "METERS",
    "longitude": -112.198348
  },
  {
    "elevation": 952.5,
    "mindate": "2016-09-02",
    "maxdate": "2020-01-17",
    "latitude": 34.5997,
    "name": "CAMP VERDE 3.2 NNW, AZ US",
    "datacoverage": 1,
    "id": "US1AZYV0136",
    "elevationUnit": "METERS",
    "longitude": -111.8778
  },
  {
    "elevation": 35.4,
    "mindate": "2015-12-10",
    "maxdate": "2020-01-20",
    "latitude": 37.7778,
    "name": "OAKLAND 1.2 ENE, CA US",
    "datacoverage": 1,
    "id": "US1CAAL0030",
    "elevationUnit": "METERS",
    "longitude": -122.2032
  },
  {
    "elevation": 28,
    "mindate": "2014-12-07",
    "maxdate": "2020-01-20",
    "latitude": 39.334813,
    "name": "GRIDLEY 3.3 SE, CA US",
    "datacoverage": 1,
    "id": "US1CABT0026",
    "elevationUnit": "METERS",
    "longitude": -121.645757
  },
  {
    "elevation": 84.1,
    "mindate": "2016-11-18",
    "maxdate": "2020-01-20",
    "latitude": 39.406398,
    "name": "PALERMO 2.7 SE, CA US",
    "datacoverage": 0.9991,
    "id": "US1CABT0033",
    "elevationUnit": "METERS",
    "longitude": -121.499978
  },
  {
    "elevation": 76.8,
    "mindate": "2008-10-02",
    "maxdate": "2020-01-17",
    "latitude": 37.989778,
    "name": "MARTINEZ 0.8 SSE, CA US",
    "datacoverage": 1,
    "id": "US1CACC0001",
    "elevationUnit": "METERS",
    "longitude": -122.108496
  },
  {
    "elevation": 84.4,
    "mindate": "2009-12-27",
    "maxdate": "2020-01-17",
    "latitude": 37.884602,
    "name": "WALNUT CREEK 1.4 SSE, CA US",
    "datacoverage": 0.9986,
    "id": "US1CACC0018",
    "elevationUnit": "METERS",
    "longitude": -122.028472
  },
  {
    "elevation": 78.6,
    "mindate": "2013-09-01",
    "maxdate": "2020-01-19",
    "latitude": 37.936324,
    "name": "EL CERRITO 1.3 NW, CA US",
    "datacoverage": 0.9991,
    "id": "US1CACC0028",
    "elevationUnit": "METERS",
    "longitude": -122.3157
  },
  {
    "elevation": 534.9,
    "mindate": "2008-07-01",
    "maxdate": "2020-01-20",
    "latitude": 38.69527,
    "name": "PLACERVILLE 3.7 SW, CA US",
    "datacoverage": 0.9995,
    "id": "US1CAED0003",
    "elevationUnit": "METERS",
    "longitude": -120.84895
  },
  {
    "elevation": 887,
    "mindate": "2013-06-23",
    "maxdate": "2020-01-20",
    "latitude": 38.7338447570801,
    "name": "CAMINO 2.0 WSW, CA US",
    "datacoverage": 1,
    "id": "US1CAED0017",
    "elevationUnit": "METERS",
    "longitude": -120.711006164551
  },
  {
    "elevation": 82.3,
    "mindate": "2008-11-14",
    "maxdate": "2020-01-20",
    "latitude": 40.9778,
    "name": "MCKINLEYVILLE 2.3 NE, CA US",
    "datacoverage": 0.9998,
    "id": "US1CAHM0009",
    "elevationUnit": "METERS",
    "longitude": -124.086
  },
  {
    "elevation": 815.3,
    "mindate": "2009-10-19",
    "maxdate": "2020-01-19",
    "latitude": 40.47343,
    "name": "BRIDGEVILLE 5.2 ENE, CA US",
    "datacoverage": 0.9995,
    "id": "US1CAHM0026",
    "elevationUnit": "METERS",
    "longitude": -123.70131
  },
  {
    "elevation": 59.1,
    "mindate": "2010-11-12",
    "maxdate": "2020-01-20",
    "latitude": 40.7642,
    "name": "EUREKA 2.2 S, CA US",
    "datacoverage": 0.9958,
    "id": "US1CAHM0035",
    "elevationUnit": "METERS",
    "longitude": -124.1476
  },
  {
    "elevation": 1316.4,
    "mindate": "2008-09-30",
    "maxdate": "2020-01-20",
    "latitude": 35.6345,
    "name": "INYOKERN 9.4 WSW, CA US",
    "datacoverage": 0.9981,
    "id": "US1CAKN0001",
    "elevationUnit": "METERS",
    "longitude": -117.9782
  },
  {
    "elevation": 112.8,
    "mindate": "2015-10-02",
    "maxdate": "2020-01-20",
    "latitude": 35.331142,
    "name": "BAKERSFIELD 6.1 WSW, CA US",
    "datacoverage": 0.9994,
    "id": "US1CAKN0022",
    "elevationUnit": "METERS",
    "longitude": -119.107783
  },
  {
    "elevation": 155.8,
    "mindate": "2008-09-23",
    "maxdate": "2020-01-17",
    "latitude": 34.1689,
    "name": "GLENDALE 2.4 WSW, CA US",
    "datacoverage": 0.9961,
    "id": "US1CALA0001",
    "elevationUnit": "METERS",
    "longitude": -118.2947
  },
  {
    "elevation": 52.1,
    "mindate": "2009-02-23",
    "maxdate": "2020-01-17",
    "latitude": 33.986232,
    "name": "WHITTIER 2.9 WNW, CA US",
    "datacoverage": 0.9997,
    "id": "US1CALA0010",
    "elevationUnit": "METERS",
    "longitude": -118.066418
  },
  {
    "elevation": 438.9,
    "mindate": "2012-04-08",
    "maxdate": "2020-01-17",
    "latitude": 39.1682014465332,
    "name": "UPPER LAKE 3.6 W, CA US",
    "datacoverage": 1,
    "id": "US1CALK0009",
    "elevationUnit": "METERS",
    "longitude": -122.977813720703
  },
  {
    "elevation": 109.4,
    "mindate": "2016-10-17",
    "maxdate": "2020-01-19",
    "latitude": 37.036736,
    "name": "LAKE MADERA 1.3 NNE, CA US",
    "datacoverage": 0.9992,
    "id": "US1CAMA0009",
    "elevationUnit": "METERS",
    "longitude": -119.984218
  },
  {
    "elevation": 733.3,
    "mindate": "2019-06-10",
    "maxdate": "2020-01-20",
    "latitude": 37.32167,
    "name": "OAKHURST 0.9 SSE, CA US",
    "datacoverage": 1,
    "id": "US1CAMA0016",
    "elevationUnit": "METERS",
    "longitude": -119.64094
  },
  {
    "elevation": 1626.4,
    "mindate": "2016-10-01",
    "maxdate": "2020-01-20",
    "latitude": 41.5135,
    "name": "ALTURAS 9.5 E, CA US",
    "datacoverage": 0.9992,
    "id": "US1CAMC0004",
    "elevationUnit": "METERS",
    "longitude": -120.3648
  },
  {
    "elevation": 848,
    "mindate": "2012-07-01",
    "maxdate": "2020-01-20",
    "latitude": 39.2381553649902,
    "name": "GRASS VALLEY 1.3 NNE, CA US",
    "datacoverage": 0.9986,
    "id": "US1CANV0035",
    "elevationUnit": "METERS",
    "longitude": -121.046287536621
  },
  {
    "elevation": 214.6,
    "mindate": "2009-11-21",
    "maxdate": "2020-01-17",
    "latitude": 33.595421,
    "name": "MISSION VIEJO 1.3 SSE, CA US",
    "datacoverage": 0.9976,
    "id": "US1CAOR0019",
    "elevationUnit": "METERS",
    "longitude": -117.644161
  },
  {
    "elevation": 117.3,
    "mindate": "2019-04-05",
    "maxdate": "2020-01-20",
    "latitude": 33.788592,
    "name": "ORANGE 2.1 ESE, CA US",
    "datacoverage": 0.9966,
    "id": "US1CAOR0077",
    "elevationUnit": "METERS",
    "longitude": -117.792437
  },
  {
    "elevation": 2099.2,
    "mindate": "2008-10-01",
    "maxdate": "2020-01-19",
    "latitude": 39.302062,
    "name": "SODA SPRINGS 1.5 SSW, CA US",
    "datacoverage": 0.9971,
    "id": "US1CAPC0001",
    "elevationUnit": "METERS",
    "longitude": -120.383677
  },
  {
    "elevation": 39.6,
    "mindate": "2015-12-14",
    "maxdate": "2020-01-19",
    "latitude": 38.808811,
    "name": "ROCKLIN 2.5 W, CA US",
    "datacoverage": 0.996,
    "id": "US1CAPC0035",
    "elevationUnit": "METERS",
    "longitude": -121.286011
  },
  {
    "elevation": 427.9,
    "mindate": "2008-07-01",
    "maxdate": "2020-01-17",
    "latitude": 33.7307,
    "name": "CORONA 12.8 SE, CA US",
    "datacoverage": 1,
    "id": "US1CARV0008",
    "elevationUnit": "METERS",
    "longitude": -117.4276
  },
  {
    "elevation": 525.2,
    "mindate": "2015-11-10",
    "maxdate": "2020-01-18",
    "latitude": 33.60811,
    "name": "MURRIETA 3.6 NNE, CA US",
    "datacoverage": 0.998,
    "id": "US1CARV0043",
    "elevationUnit": "METERS",
    "longitude": -117.187842
  },
  {
    "elevation": 74.1,
    "mindate": "2019-01-22",
    "maxdate": "2020-01-17",
    "latitude": 38.570137,
    "name": "RANCHO CORDOVA 5.9 ESE, CA US",
    "datacoverage": 1,
    "id": "US1CASA0061",
    "elevationUnit": "METERS",
    "longitude": -121.196535
  },
  {
    "elevation": 25.9,
    "mindate": "2008-09-28",
    "maxdate": "2020-01-19",
    "latitude": 37.364707,
    "name": "SUNNYVALE 1.9 SE, CA US",
    "datacoverage": 0.9966,
    "id": "US1CASC0003",
    "elevationUnit": "METERS",
    "longitude": -122.004155
  },
  {
    "elevation": 506.6,
    "mindate": "2010-10-01",
    "maxdate": "2020-01-18",
    "latitude": 37.15603,
    "name": "LOS GATOS 5.4 SSW, CA US",
    "datacoverage": 0.9988,
    "id": "US1CASC0040",
    "elevationUnit": "METERS",
    "longitude": -121.98754
  },
  {
    "elevation": 203,
    "mindate": "2008-10-15",
    "maxdate": "2020-01-17",
    "latitude": 33.1472,
    "name": "SAN MARCOS 2.5 ENE, CA US",
    "datacoverage": 0.9985,
    "id": "US1CASD0001",
    "elevationUnit": "METERS",
    "longitude": -117.1316
  },
  {
    "elevation": 221.6,
    "mindate": "2008-11-02",
    "maxdate": "2020-01-18",
    "latitude": 32.790748,
    "name": "EL CAJON 1.5WSW, CA US",
    "datacoverage": 0.9983,
    "id": "US1CASD0009",
    "elevationUnit": "METERS",
    "longitude": -116.986977
  },
  {
    "elevation": 367.6,
    "mindate": "2009-10-01",
    "maxdate": "2020-01-20",
    "latitude": 32.9956,
    "name": "POWAY 3.2NE, CA US",
    "datacoverage": 1,
    "id": "US1CASD0012",
    "elevationUnit": "METERS",
    "longitude": -117.00441
  },
  {
    "elevation": 309.1,
    "mindate": "2013-04-24",
    "maxdate": "2020-01-19",
    "latitude": 32.76984,
    "name": "LA MESA 2.6E, CA US",
    "datacoverage": 0.9992,
    "id": "US1CASD0090",
    "elevationUnit": "METERS",
    "longitude": -116.978811
  },
  {
    "elevation": 67.7,
    "mindate": "2013-11-01",
    "maxdate": "2020-01-20",
    "latitude": 33.079419,
    "name": "CARLSBAD 8.3SE, CA US",
    "datacoverage": 0.996,
    "id": "US1CASD0097",
    "elevationUnit": "METERS",
    "longitude": -117.24189
  },
  {
    "elevation": 413.6,
    "mindate": "2014-02-03",
    "maxdate": "2020-01-17",
    "latitude": 33.310784,
    "name": "VALLEY CENTER 6.4N, CA US",
    "datacoverage": 0.9982,
    "id": "US1CASD0101",
    "elevationUnit": "METERS",
    "longitude": -117.040908
  },
  {
    "elevation": 1062.8,
    "mindate": "2014-03-11",
    "maxdate": "2020-01-20",
    "latitude": 32.86508,
    "name": "DESCANSO 0.8 N, CA US",
    "datacoverage": 1,
    "id": "US1CASD0104",
    "elevationUnit": "METERS",
    "longitude": -116.61753
  },
  {
    "elevation": 111.6,
    "mindate": "2018-04-05",
    "maxdate": "2020-01-19",
    "latitude": 32.81391,
    "name": "SAN DIEGO 1.9 W, CA US",
    "datacoverage": 0.9985,
    "id": "US1CASD0173",
    "elevationUnit": "METERS",
    "longitude": -117.16925
  },
  {
    "elevation": 194.2,
    "mindate": "2018-12-17",
    "maxdate": "2020-01-18",
    "latitude": 32.81535,
    "name": "EL CAJON 2.2 ENE, CA US",
    "datacoverage": 1,
    "id": "US1CASD0180",
    "elevationUnit": "METERS",
    "longitude": -116.926941
  },
  {
    "elevation": 135.3,
    "mindate": "2012-01-21",
    "maxdate": "2020-01-17",
    "latitude": 40.51805555,
    "name": "REDDING 3.8 S, CA US",
    "datacoverage": 0.9986,
    "id": "US1CASH0051",
    "elevationUnit": "METERS",
    "longitude": -122.36916666
  },
  {
    "elevation": 44.5,
    "mindate": "2008-10-02",
    "maxdate": "2020-01-20",
    "latitude": 38.062693,
    "name": "LINDEN 5.8 ENE, CA US",
    "datacoverage": 0.9969,
    "id": "US1CASJ0001",
    "elevationUnit": "METERS",
    "longitude": -121.007916
  },
  {
    "elevation": 807.7,
    "mindate": "2018-02-23",
    "maxdate": "2020-01-18",
    "latitude": 41.632265,
    "name": "GRENADA 0.8 SW, CA US",
    "datacoverage": 0.9957,
    "id": "US1CASK0020",
    "elevationUnit": "METERS",
    "longitude": -122.537255
  },
  {
    "elevation": 69.2,
    "mindate": "2008-06-01",
    "maxdate": "2020-01-17",
    "latitude": 37.612115,
    "name": "PACIFICA 0.3 W, CA US",
    "datacoverage": 0.996,
    "id": "US1CASM0001",
    "elevationUnit": "METERS",
    "longitude": -122.48254
  },
  {
    "elevation": 2.1,
    "mindate": "2008-11-10",
    "maxdate": "2020-01-20",
    "latitude": 37.54883,
    "name": "FOSTER CITY 1.3 SW, CA US",
    "datacoverage": 1,
    "id": "US1CASM0006",
    "elevationUnit": "METERS",
    "longitude": -122.2587
  },
  {
    "elevation": 128.9,
    "mindate": "2009-01-23",
    "maxdate": "2020-01-20",
    "latitude": 38.375265,
    "name": "SEBASTOPOL 4.5 WSW, CA US",
    "datacoverage": 0.9995,
    "id": "US1CASN0016",
    "elevationUnit": "METERS",
    "longitude": -122.903541
  },
  {
    "elevation": 102.7,
    "mindate": "2009-04-07",
    "maxdate": "2020-01-16",
    "latitude": 38.377824,
    "name": "GLEN ELLEN 1.5 N, CA US",
    "datacoverage": 0.9962,
    "id": "US1CASN0080",
    "elevationUnit": "METERS",
    "longitude": -122.534275
  },
  {
    "elevation": 41.8,
    "mindate": "2015-02-03",
    "maxdate": "2020-01-18",
    "latitude": 38.469852,
    "name": "SANTA ROSA 2.3 NW, CA US",
    "datacoverage": 0.9983,
    "id": "US1CASN0112",
    "elevationUnit": "METERS",
    "longitude": -122.733314
  },
  {
    "elevation": 1039.1,
    "mindate": "2009-05-01",
    "maxdate": "2020-01-19",
    "latitude": 34.097337,
    "name": "JOSHUA TREE 2.0 S, CA US",
    "datacoverage": 0.998,
    "id": "US1CASR0014",
    "elevationUnit": "METERS",
    "longitude": -116.31783
  },
  {
    "elevation": 23.8,
    "mindate": "2016-01-24",
    "maxdate": "2020-01-20",
    "latitude": 37.693058013916,
    "name": "MODESTO 4.1 NW, CA US",
    "datacoverage": 0.9993,
    "id": "US1CASS0006",
    "elevationUnit": "METERS",
    "longitude": -121.056518554688
  },
  {
    "elevation": 26.2,
    "mindate": "2014-12-06",
    "maxdate": "2020-01-20",
    "latitude": 38.5613,
    "name": "DAVIS 6.3 W, CA US",
    "datacoverage": 1,
    "id": "US1CAYL0021",
    "elevationUnit": "METERS",
    "longitude": -121.852198
  },
  {
    "elevation": 1645,
    "mindate": "2001-06-01",
    "maxdate": "2020-01-20",
    "latitude": 39.9941,
    "name": "BOULDER 2.9 S, CO US",
    "datacoverage": 0.9959,
    "id": "US1COBO0004",
    "elevationUnit": "METERS",
    "longitude": -105.2573
  },
  {
    "elevation": 1638.9,
    "mindate": "2002-09-09",
    "maxdate": "2020-01-18",
    "latitude": 40.0242,
    "name": "BOULDER 1.3 NW, CO US",
    "datacoverage": 0.9989,
    "id": "US1COBO0072",
    "elevationUnit": "METERS",
    "longitude": -105.2689
  },
  {
    "elevation": 2609.1,
    "mindate": "2005-07-01",
    "maxdate": "2020-01-19",
    "latitude": 40.1103,
    "name": "WARD 4.6 NE, CO US",
    "datacoverage": 1,
    "id": "US1COBO0202",
    "elevationUnit": "METERS",
    "longitude": -105.4391
  },
  {
    "elevation": 1573.1,
    "mindate": "2007-08-13",
    "maxdate": "2020-01-20",
    "latitude": 40.102041,
    "name": "NIWOT 2.3 W, CO US",
    "datacoverage": 0.9974,
    "id": "US1COBO0248",
    "elevationUnit": "METERS",
    "longitude": -105.198728
  },
  {
    "elevation": 1695,
    "mindate": "2010-05-03",
    "maxdate": "2020-01-17",
    "latitude": 39.977,
    "name": "BOULDER 3.5 S, CO US",
    "datacoverage": 0.9986,
    "id": "US1COBO0286",
    "elevationUnit": "METERS",
    "longitude": -105.2576
  },
  {
    "elevation": 1671.5,
    "mindate": "2017-06-11",
    "maxdate": "2020-01-20",
    "latitude": 40.0456,
    "name": "BOULDER 1.8 NW, CO US",
    "datacoverage": 0.9979,
    "id": "US1COBO0465",
    "elevationUnit": "METERS",
    "longitude": -105.275351
  },
  {
    "elevation": 1797.7,
    "mindate": "2018-05-26",
    "maxdate": "2020-01-19",
    "latitude": 39.524475,
    "name": "PARKER 2.5 WNW, CO US",
    "datacoverage": 1,
    "id": "US1CODG0282",
    "elevationUnit": "METERS",
    "longitude": -104.807063
  },
  {
    "elevation": 1734,
    "mindate": "2017-08-11",
    "maxdate": "2020-01-19",
    "latitude": 38.814372,
    "name": "HOTCHKISS 4.9 W, CO US",
    "datacoverage": 0.9966,
    "id": "US1CODL0049",
    "elevationUnit": "METERS",
    "longitude": -107.80785
  },
  {
    "elevation": 2214.1,
    "mindate": "2004-04-12",
    "maxdate": "2020-01-18",
    "latitude": 39.1125,
    "name": "MONUMENT 2.9 N, CO US",
    "datacoverage": 0.9976,
    "id": "US1COEP0055",
    "elevationUnit": "METERS",
    "longitude": -104.859
  },
  {
    "elevation": 2268,
    "mindate": "2017-10-05",
    "maxdate": "2020-01-20",
    "latitude": 39.0410041,
    "name": "BLACK FOREST 3.8 W, CO US",
    "datacoverage": 0.9976,
    "id": "US1COEP0396",
    "elevationUnit": "METERS",
    "longitude": -104.7379468
  },
  {
    "elevation": 1880.9,
    "mindate": "2007-09-27",
    "maxdate": "2020-01-19",
    "latitude": 39.397817,
    "name": "CARBONDALE 0.5 W, CO US",
    "datacoverage": 0.9989,
    "id": "US1COGF0047",
    "elevationUnit": "METERS",
    "longitude": -107.2227
  },
  {
    "elevation": 2420.4,
    "mindate": "2009-06-08",
    "maxdate": "2020-01-20",
    "latitude": 38.639122,
    "name": "GUNNISON 6.6 N, CO US",
    "datacoverage": 0.9959,
    "id": "US1COGN0040",
    "elevationUnit": "METERS",
    "longitude": -106.940753
  },
  {
    "elevation": 2564.9,
    "mindate": "2010-01-01",
    "maxdate": "2020-01-09",
    "latitude": 39.07911,
    "name": "MARBLE 0.5 NNW, CO US",
    "datacoverage": 0.997,
    "id": "US1COGN0050",
    "elevationUnit": "METERS",
    "longitude": -107.190612
  },
  {
    "elevation": 2164.7,
    "mindate": "2015-07-30",
    "maxdate": "2020-01-20",
    "latitude": 37.60339,
    "name": "WALSENBURG 11.5 W, CO US",
    "datacoverage": 0.9957,
    "id": "US1COHF0041",
    "elevationUnit": "METERS",
    "longitude": -104.9905
  },
  {
    "elevation": 2378,
    "mindate": "2003-11-14",
    "maxdate": "2020-01-18",
    "latitude": 39.5795,
    "name": "EVERGREEN 4.2 SSE, CO US",
    "datacoverage": 0.9954,
    "id": "US1COJF0157",
    "elevationUnit": "METERS",
    "longitude": -105.2789
  },
  {
    "elevation": 1783.1,
    "mindate": "2004-07-02",
    "maxdate": "2020-01-11",
    "latitude": 39.6082,
    "name": "LITTLETON 6.4 W, CO US",
    "datacoverage": 0.9984,
    "id": "US1COJF0212",
    "elevationUnit": "METERS",
    "longitude": -105.1371
  },
  {
    "elevation": 1696.5,
    "mindate": "2007-05-01",
    "maxdate": "2020-01-19",
    "latitude": 39.756366,
    "name": "WHEAT RIDGE 2.8 WSW, CO US",
    "datacoverage": 0.9966,
    "id": "US1COJF0290",
    "elevationUnit": "METERS",
    "longitude": -105.146817
  },
  {
    "elevation": 1751.1,
    "mindate": "2009-10-01",
    "maxdate": "2020-01-20",
    "latitude": 39.67736,
    "name": "LAKEWOOD 1.7 SW, CO US",
    "datacoverage": 0.9987,
    "id": "US1COJF0333",
    "elevationUnit": "METERS",
    "longitude": -105.136721
  },
  {
    "elevation": 2358.5,
    "mindate": "2013-05-03",
    "maxdate": "2020-01-20",
    "latitude": 39.6244,
    "name": "EVERGREEN 2.0 ESE, CO US",
    "datacoverage": 1,
    "id": "US1COJF0395",
    "elevationUnit": "METERS",
    "longitude": -105.3068
  },
  {
    "elevation": 1740.7,
    "mindate": "2016-09-01",
    "maxdate": "2020-01-10",
    "latitude": 39.848753,
    "name": "ARVADA 3.5 WNW, CO US",
    "datacoverage": 1,
    "id": "US1COJF0457",
    "elevationUnit": "METERS",
    "longitude": -105.162186
  },
  {
    "elevation": 1357,
    "mindate": "2006-08-07",
    "maxdate": "2020-01-19",
    "latitude": 40.514722,
    "name": "STERLING 15 SE, CO US",
    "datacoverage": 0.9998,
    "id": "US1COLG0040",
    "elevationUnit": "METERS",
    "longitude": -102.990556
  },
  {
    "elevation": 1499.9,
    "mindate": "2003-06-05",
    "maxdate": "2020-01-18",
    "latitude": 38.6779,
    "name": "KARVAL 9.8 WSW, CO US",
    "datacoverage": 0.9952,
    "id": "US1COLN0018",
    "elevationUnit": "METERS",
    "longitude": -103.7049
  },
  {
    "elevation": 1562.1,
    "mindate": "1999-04-21",
    "maxdate": "2020-01-20",
    "latitude": 40.3926,
    "name": "LOV 4.0 W, CO US",
    "datacoverage": 1,
    "id": "US1COLR0509",
    "elevationUnit": "METERS",
    "longitude": -105.1587
  },
  {
    "elevation": 1513,
    "mindate": "2005-07-28",
    "maxdate": "2020-01-20",
    "latitude": 40.3922,
    "name": "LOVELAND 2.0 SSE, CO US",
    "datacoverage": 1,
    "id": "US1COLR0662",
    "elevationUnit": "METERS",
    "longitude": -105.05393
  },
  {
    "elevation": 1494.1,
    "mindate": "2007-07-26",
    "maxdate": "2020-01-05",
    "latitude": 40.495523,
    "name": "FORT COLLINS 4.2 S, CO US",
    "datacoverage": 0.9976,
    "id": "US1COLR0758",
    "elevationUnit": "METERS",
    "longitude": -105.05669
  },
  {
    "elevation": 1579.2,
    "mindate": "2012-01-01",
    "maxdate": "2020-01-20",
    "latitude": 40.2843,
    "name": "BERTHOUD 4.4 WSW, CO US",
    "datacoverage": 1,
    "id": "US1COLR0922",
    "elevationUnit": "METERS",
    "longitude": -105.1608
  },
  {
    "elevation": 1572.5,
    "mindate": "2016-05-30",
    "maxdate": "2020-01-20",
    "latitude": 40.427677154541,
    "name": "LOVELAND 2.8 WNW, CO US",
    "datacoverage": 1,
    "id": "US1COLR1109",
    "elevationUnit": "METERS",
    "longitude": -105.124092102051
  },
  {
    "elevation": 1426.5,
    "mindate": "2015-07-22",
    "maxdate": "2020-01-20",
    "latitude": 39.087994,
    "name": "GRAND JUNCTION 2.3 E, CO US",
    "datacoverage": 1,
    "id": "US1COME0125",
    "elevationUnit": "METERS",
    "longitude": -108.509153
  },
  {
    "elevation": 1418.2,
    "mindate": "2016-05-16",
    "maxdate": "2020-01-20",
    "latitude": 39.080928,
    "name": "GRAND JUNCTION 3.6 W, CO US",
    "datacoverage": 1,
    "id": "US1COME0137",
    "elevationUnit": "METERS",
    "longitude": -108.61919
  },
  {
    "elevation": 1285,
    "mindate": "2006-10-01",
    "maxdate": "2020-01-20",
    "latitude": 40.29305,
    "name": "HILLROSE 2.5 SSW, CO US",
    "datacoverage": 0.9963,
    "id": "US1COMR0081",
    "elevationUnit": "METERS",
    "longitude": -103.54646
  },
  {
    "elevation": 1419.1,
    "mindate": "2017-01-01",
    "maxdate": "2020-01-18",
    "latitude": 38.259312,
    "name": "PUEBLO 4.7 SE, CO US",
    "datacoverage": 0.9982,
    "id": "US1COPU0103",
    "elevationUnit": "METERS",
    "longitude": -104.547806
  },
  {
    "elevation": 1449.6,
    "mindate": "2015-03-08",
    "maxdate": "2020-01-18",
    "latitude": 38.264332,
    "name": "PUEBLO 2.5 SSW, CO US",
    "datacoverage": 0.9989,
    "id": "US1COPU0109",
    "elevationUnit": "METERS",
    "longitude": -104.633345
  },
  {
    "elevation": 157,
    "mindate": "2018-08-22",
    "maxdate": "2020-01-20",
    "latitude": 38.4003,
    "name": "PUEBLO WEST 3.7 NNE, CO US",
    "datacoverage": 0.9961,
    "id": "US1COPU0134",
    "elevationUnit": "METERS",
    "longitude": -104.6989
  },
  {
    "elevation": 2148.5,
    "mindate": "2013-12-30",
    "maxdate": "2020-01-15",
    "latitude": 40.475368,
    "name": "STEAMBOAT SPRINGS 0.7 ESE, CO US",
    "datacoverage": 0.9959,
    "id": "US1CORT0053",
    "elevationUnit": "METERS",
    "longitude": -106.808496
  },
  {
    "elevation": 1438,
    "mindate": "2004-05-19",
    "maxdate": "2020-01-19",
    "latitude": 40.2917,
    "name": "GREELEY 10.5 SSE, CO US",
    "datacoverage": 0.9979,
    "id": "US1COWE0043",
    "elevationUnit": "METERS",
    "longitude": -104.6394
  },
  {
    "elevation": 1448.1,
    "mindate": "2008-08-03",
    "maxdate": "2020-01-20",
    "latitude": 40.438,
    "name": "GREELEY 4.6 WNW, CO US",
    "datacoverage": 0.999,
    "id": "US1COWE0318",
    "elevationUnit": "METERS",
    "longitude": -104.807
  },
  {
    "elevation": 1164,
    "mindate": "2006-07-20",
    "maxdate": "2020-01-19",
    "latitude": 39.97743,
    "name": "VERNON 3.6 NNE, CO US",
    "datacoverage": 0.999,
    "id": "US1COYU0062",
    "elevationUnit": "METERS",
    "longitude": -102.250747
  },
  {
    "elevation": 69.8,
    "mindate": "2018-09-01",
    "maxdate": "2020-01-20",
    "latitude": 41.6225,
    "name": "KENSINGTON 0.7 WSW, CT US",
    "datacoverage": 0.9961,
    "id": "US1CTHR0080",
    "elevationUnit": "METERS",
    "longitude": -72.78289
  },
  {
    "elevation": 270.7,
    "mindate": "2016-07-31",
    "maxdate": "2020-01-20",
    "latitude": 42.002,
    "name": "COLEBROOK 1.0 NE, CT US",
    "datacoverage": 0.9992,
    "id": "US1CTLT0015",
    "elevationUnit": "METERS",
    "longitude": -73.0825
  },
  {
    "elevation": 29.9,
    "mindate": "2018-04-12",
    "maxdate": "2020-01-20",
    "latitude": 41.501067,
    "name": "HIGGANUM 0.7 N, CT US",
    "datacoverage": 0.9985,
    "id": "US1CTMD0023",
    "elevationUnit": "METERS",
    "longitude": -72.555951
  },
  {
    "elevation": 72.2,
    "mindate": "2018-08-19",
    "maxdate": "2020-01-19",
    "latitude": 41.5103,
    "name": "MIDDLEFIELD 0.6 SE, CT US",
    "datacoverage": 0.9981,
    "id": "US1CTMD0025",
    "elevationUnit": "METERS",
    "longitude": -72.705
  },
  {
    "elevation": 100,
    "mindate": "2017-11-26",
    "maxdate": "2020-01-20",
    "latitude": 41.403135,
    "name": "SEYMOUR 1.5 NE, CT US",
    "datacoverage": 0.9975,
    "id": "US1CTNH0047",
    "elevationUnit": "METERS",
    "longitude": -73.04835
  },
  {
    "elevation": 93,
    "mindate": "2016-08-02",
    "maxdate": "2020-01-19",
    "latitude": 41.584855,
    "name": "NORWICH 2.5 NNE, CT US",
    "datacoverage": 0.9976,
    "id": "US1CTNL0010",
    "elevationUnit": "METERS",
    "longitude": -72.076749
  },
  {
    "elevation": 47.5,
    "mindate": "2016-04-15",
    "maxdate": "2020-01-20",
    "latitude": 41.608825,
    "name": "GRISWOLD 0.9 N, CT US",
    "datacoverage": 1,
    "id": "US1CTNL0021",
    "elevationUnit": "METERS",
    "longitude": -71.930861
  },
  {
    "elevation": 19.8,
    "mindate": "2018-04-14",
    "maxdate": "2020-01-20",
    "latitude": 41.30129,
    "name": "OLD LYME 3.4 ESE, CT US",
    "datacoverage": 1,
    "id": "US1CTNL0038",
    "elevationUnit": "METERS",
    "longitude": -72.26666
  },
  {
    "elevation": 78.9,
    "mindate": "2016-05-30",
    "maxdate": "2020-01-19",
    "latitude": 41.995532,
    "name": "CENTRAL SOMERS 0.3 N, CT US",
    "datacoverage": 1,
    "id": "US1CTTL0015",
    "elevationUnit": "METERS",
    "longitude": -72.44127
  },
  {
    "elevation": 127.7,
    "mindate": "2014-12-10",
    "maxdate": "2020-01-20",
    "latitude": 41.731808,
    "name": "MOOSUP 1.7 NE, CT US",
    "datacoverage": 0.9984,
    "id": "US1CTWN0008",
    "elevationUnit": "METERS",
    "longitude": -71.846671
  },
  {
    "elevation": 33.8,
    "mindate": "2009-07-01",
    "maxdate": "2020-01-20",
    "latitude": 39.624942,
    "name": "NEWARK 3.9 SSW, DE US",
    "datacoverage": 0.9982,
    "id": "US1DENC0002",
    "elevationUnit": "METERS",
    "longitude": -75.786129
  },
  {
    "elevation": 20.7,
    "mindate": "2009-09-19",
    "maxdate": "2020-01-20",
    "latitude": 39.725585,
    "name": "NEWPORT 2.4 WNW, DE US",
    "datacoverage": 1,
    "id": "US1DENC0010",
    "elevationUnit": "METERS",
    "longitude": -75.648791
  },
  {
    "elevation": 11.9,
    "mindate": "2017-08-14",
    "maxdate": "2020-01-20",
    "latitude": 38.605,
    "name": "LAUREL 3.5 NNE, DE US",
    "datacoverage": 0.9955,
    "id": "US1DESS0064",
    "elevationUnit": "METERS",
    "longitude": -75.5601
  },
  {
    "elevation": 11.9,
    "mindate": "2007-09-23",
    "maxdate": "2020-01-20",
    "latitude": 27.951176,
    "name": "PALM BAY 2.6 SSE, FL US",
    "datacoverage": 1,
    "id": "US1FLBV0001",
    "elevationUnit": "METERS",
    "longitude": -80.64202
  },
  {
    "elevation": 2.4,
    "mindate": "2014-04-01",
    "maxdate": "2020-01-20",
    "latitude": 26.118211,
    "name": "PLANTATION 3.4 E, FL US",
    "datacoverage": 1,
    "id": "US1FLBW0076",
    "elevationUnit": "METERS",
    "longitude": -80.206628
  },
  {
    "elevation": 1.5,
    "mindate": "2017-06-14",
    "maxdate": "2020-01-19",
    "latitude": 26.170664,
    "name": "OAKLAND PARK 0.3 SE, FL US",
    "datacoverage": 0.9989,
    "id": "US1FLBW0127",
    "elevationUnit": "METERS",
    "longitude": -80.150142
  },
  {
    "elevation": 35.1,
    "mindate": "2007-10-09",
    "maxdate": "2020-01-05",
    "latitude": 29.81717,
    "name": "KEYSTONE HEIGHTS 6.9 ENE, FL US",
    "datacoverage": 0.9971,
    "id": "US1FLCY0003",
    "elevationUnit": "METERS",
    "longitude": -81.92745
  },
  {
    "elevation": 4.9,
    "mindate": "2014-07-03",
    "maxdate": "2020-01-20",
    "latitude": 30.06164,
    "name": "FLEMING ISLAND 2.2 S, FL US",
    "datacoverage": 0.9965,
    "id": "US1FLCY0037",
    "elevationUnit": "METERS",
    "longitude": -81.71337
  },
  {
    "elevation": 21.9,
    "mindate": "2010-01-17",
    "maxdate": "2020-01-20",
    "latitude": 30.568513,
    "name": "GONZALEZ 2.1 E, FL US",
    "datacoverage": 0.9967,
    "id": "US1FLES0015",
    "elevationUnit": "METERS",
    "longitude": -87.254739
  },
  {
    "elevation": 6.1,
    "mindate": "2018-04-04",
    "maxdate": "2020-01-20",
    "latitude": 29.456418,
    "name": "FLAGLER BEACH 1.3 SE, FL US",
    "datacoverage": 0.997,
    "id": "US1FLFL0033",
    "elevationUnit": "METERS",
    "longitude": -81.116289
  },
  {
    "elevation": 85,
    "mindate": "2008-01-28",
    "maxdate": "2020-01-17",
    "latitude": 30.582286,
    "name": "HAVANA 4.2 SW, FL US",
    "datacoverage": 0.9982,
    "id": "US1FLGD0002",
    "elevationUnit": "METERS",
    "longitude": -84.467118
  },
  {
    "elevation": 32.9,
    "mindate": "2007-09-28",
    "maxdate": "2020-01-20",
    "latitude": 27.9125,
    "name": "VALRICO 2.2 SE, FL US",
    "datacoverage": 1,
    "id": "US1FLHB0004",
    "elevationUnit": "METERS",
    "longitude": -82.2261
  },
  {
    "elevation": 15.5,
    "mindate": "2007-09-25",
    "maxdate": "2020-01-17",
    "latitude": 28.08232,
    "name": "CITRUS PARK 1.3 ENE, FL US",
    "datacoverage": 0.998,
    "id": "US1FLHB0005",
    "elevationUnit": "METERS",
    "longitude": -82.549328
  },
  {
    "elevation": 25.9,
    "mindate": "2007-10-01",
    "maxdate": "2020-01-20",
    "latitude": 28.107081,
    "name": "GREATER NORTHDALE 0.4 ENE, FL US",
    "datacoverage": 0.9982,
    "id": "US1FLHB0048",
    "elevationUnit": "METERS",
    "longitude": -82.513162
  },
  {
    "elevation": 15.8,
    "mindate": "2007-12-24",
    "maxdate": "2020-01-20",
    "latitude": 28.0126,
    "name": "TAMPA 5.0 NNE, FL US",
    "datacoverage": 0.9982,
    "id": "US1FLHB0055",
    "elevationUnit": "METERS",
    "longitude": -82.4155
  },
  {
    "elevation": 13.4,
    "mindate": "2013-08-19",
    "maxdate": "2020-01-20",
    "latitude": 27.80473,
    "name": "RIVERVIEW 4.8 SSW, FL US",
    "datacoverage": 1,
    "id": "US1FLHB0098",
    "elevationUnit": "METERS",
    "longitude": -82.34099
  },
  {
    "elevation": 11.9,
    "mindate": "2017-06-10",
    "maxdate": "2020-01-20",
    "latitude": 27.7822,
    "name": "APOLLO BEACH 2.7 ENE, FL US",
    "datacoverage": 1,
    "id": "US1FLHB0130",
    "elevationUnit": "METERS",
    "longitude": -82.3645
  },
  {
    "elevation": 18,
    "mindate": "2018-05-26",
    "maxdate": "2020-01-20",
    "latitude": 28.086432,
    "name": "GREATER NORTHDALE 1.2 S, FL US",
    "datacoverage": 1,
    "id": "US1FLHB0140",
    "elevationUnit": "METERS",
    "longitude": -82.515349
  },
  {
    "elevation": 47.9,
    "mindate": "2014-09-30",
    "maxdate": "2020-01-20",
    "latitude": 30.5576877593994,
    "name": "MONTICELLO 4.3 ENE, FL US",
    "datacoverage": 0.999,
    "id": "US1FLJF0009",
    "elevationUnit": "METERS",
    "longitude": -83.8015670776367
  },
  {
    "elevation": 27.4,
    "mindate": "2008-01-01",
    "maxdate": "2020-01-20",
    "latitude": 28.799,
    "name": "MOUNT PLYMOUTH 0.2 WSW, FL US",
    "datacoverage": 0.9993,
    "id": "US1FLLK0005",
    "elevationUnit": "METERS",
    "longitude": -81.535
  },
  {
    "elevation": 31.7,
    "mindate": "2011-01-01",
    "maxdate": "2020-01-20",
    "latitude": 30.442466,
    "name": "TALLAHASSEE 5.2 E, FL US",
    "datacoverage": 0.9988,
    "id": "US1FLLN0047",
    "elevationUnit": "METERS",
    "longitude": -84.194941
  },
  {
    "elevation": 10.4,
    "mindate": "2019-06-25",
    "maxdate": "2020-01-20",
    "latitude": 29.04094,
    "name": "INGLIS 0.6 N, FL US",
    "datacoverage": 1,
    "id": "US1FLLV0015",
    "elevationUnit": "METERS",
    "longitude": -82.65981
  },
  {
    "elevation": 11.9,
    "mindate": "2018-05-01",
    "maxdate": "2020-01-20",
    "latitude": 27.413209,
    "name": "LAKEWOOD RANCH 3.5 E, FL US",
    "datacoverage": 0.9984,
    "id": "US1FLMA0029",
    "elevationUnit": "METERS",
    "longitude": -82.368345
  },
  {
    "elevation": 2.7,
    "mindate": "2009-04-17",
    "maxdate": "2020-01-19",
    "latitude": 25.665,
    "name": "HAMMOCKS 0.5 SSE, FL US",
    "datacoverage": 0.9959,
    "id": "US1FLMD0022",
    "elevationUnit": "METERS",
    "longitude": -80.4395
  },
  {
    "elevation": 1.8,
    "mindate": "2019-06-26",
    "maxdate": "2020-01-20",
    "latitude": 25.727376,
    "name": "KENDALE LAKES 1.4 N, FL US",
    "datacoverage": 1,
    "id": "US1FLMD0092",
    "elevationUnit": "METERS",
    "longitude": -80.405869
  },
  {
    "elevation": 60,
    "mindate": "2007-12-03",
    "maxdate": "2020-01-20",
    "latitude": 29.457061,
    "name": "MICANOPY 3.6 SSW, FL US",
    "datacoverage": 0.9993,
    "id": "US1FLMR0013",
    "elevationUnit": "METERS",
    "longitude": -82.299833
  },
  {
    "elevation": 31.1,
    "mindate": "2017-07-01",
    "maxdate": "2020-01-20",
    "latitude": 28.980161,
    "name": "THE VILLAGES 3.7 NNW, FL US",
    "datacoverage": 1,
    "id": "US1FLMR0066",
    "elevationUnit": "METERS",
    "longitude": -82.023016
  },
  {
    "elevation": 4.9,
    "mindate": "2008-03-31",
    "maxdate": "2020-01-20",
    "latitude": 30.4109,
    "name": "MARY ESTHER 0.6 E, FL US",
    "datacoverage": 0.9998,
    "id": "US1FLOK0029",
    "elevationUnit": "METERS",
    "longitude": -86.6475
  },
  {
    "elevation": 31.1,
    "mindate": "2014-03-24",
    "maxdate": "2020-01-20",
    "latitude": 28.5743007659912,
    "name": "ORLANDO 4.9 N, FL US",
    "datacoverage": 0.9991,
    "id": "US1FLOR0027",
    "elevationUnit": "METERS",
    "longitude": -81.385139465332
  },
  {
    "elevation": 31.4,
    "mindate": "2018-04-01",
    "maxdate": "2020-01-20",
    "latitude": 28.5139054,
    "name": "ORLANDO 2.2 WNW, FL US",
    "datacoverage": 0.9985,
    "id": "US1FLOR0046",
    "elevationUnit": "METERS",
    "longitude": -81.409581
  },
  {
    "elevation": 22.6,
    "mindate": "2018-03-23",
    "maxdate": "2020-01-20",
    "latitude": 28.00292,
    "name": "CLEARWATER 1.6 N, FL US",
    "datacoverage": 0.9985,
    "id": "US1FLPN0083",
    "elevationUnit": "METERS",
    "longitude": -82.76236
  },
  {
    "elevation": 4.9,
    "mindate": "2019-03-10",
    "maxdate": "2020-01-20",
    "latitude": 27.88195,
    "name": "LARGO 3.1 SE, FL US",
    "datacoverage": 0.9968,
    "id": "US1FLPN0094",
    "elevationUnit": "METERS",
    "longitude": -82.74113
  },
  {
    "elevation": 10.1,
    "mindate": "2019-03-19",
    "maxdate": "2020-01-20",
    "latitude": 27.26259,
    "name": "PORT ST. LUCIE 1.8 SW, FL US",
    "datacoverage": 0.9968,
    "id": "US1FLSL0050",
    "elevationUnit": "METERS",
    "longitude": -80.37666
  },
  {
    "elevation": 25.6,
    "mindate": "2012-12-10",
    "maxdate": "2020-01-20",
    "latitude": 29.0374069213867,
    "name": "DELAND 2.0 W, FL US",
    "datacoverage": 0.9981,
    "id": "US1FLVL0021",
    "elevationUnit": "METERS",
    "longitude": -81.3299255371094
  },
  {
    "elevation": 7.3,
    "mindate": "2016-01-16",
    "maxdate": "2020-01-20",
    "latitude": 29.1,
    "name": "PORT ORANGE 2.9 WSW, FL US",
    "datacoverage": 1,
    "id": "US1FLVL0044",
    "elevationUnit": "METERS",
    "longitude": -81.05276
  },
  {
    "elevation": 7,
    "mindate": "2018-03-25",
    "maxdate": "2020-01-20",
    "latitude": 29.1452,
    "name": "PORT ORANGE 2.5 NNE, FL US",
    "datacoverage": 0.9955,
    "id": "US1FLVL0060",
    "elevationUnit": "METERS",
    "longitude": -80.99597
  },
  {
    "elevation": 3,
    "mindate": "2018-04-09",
    "maxdate": "2020-01-20",
    "latitude": 29.332109,
    "name": "ORMOND BY THE SEA 0.8 SSE, FL US",
    "datacoverage": 1,
    "id": "US1FLVL0081",
    "elevationUnit": "METERS",
    "longitude": -81.064317
  },
  {
    "elevation": 75,
    "mindate": "2019-06-18",
    "maxdate": "2020-01-20",
    "latitude": 30.776521,
    "name": "DE FUNIAK SPRINGS 4.1 NNW, FL US",
    "datacoverage": 0.9954,
    "id": "US1FLWT0022",
    "elevationUnit": "METERS",
    "longitude": -86.144959
  },
  {
    "elevation": 133.2,
    "mindate": "2014-03-25",
    "maxdate": "2020-01-19",
    "latitude": 32.838347,
    "name": "MACON 6.3 E, GA US",
    "datacoverage": 0.9972,
    "id": "US1GABB0016",
    "elevationUnit": "METERS",
    "longitude": -83.548249
  },
  {
    "elevation": 2.1,
    "mindate": "2008-04-18",
    "maxdate": "2020-01-20",
    "latitude": 31.9455,
    "name": "RICHMOND HILL 0.5 NE, GA US",
    "datacoverage": 0.9963,
    "id": "US1GABR0002",
    "elevationUnit": "METERS",
    "longitude": -81.3002
  },
  {
    "elevation": 251.2,
    "mindate": "2014-01-01",
    "maxdate": "2020-01-19",
    "latitude": 34.53944444,
    "name": "SUMMERVILLE 9.4 ENE, GA US",
    "datacoverage": 0.9995,
    "id": "US1GACG0011",
    "elevationUnit": "METERS",
    "longitude": -85.20083333
  },
  {
    "elevation": 270.4,
    "mindate": "2008-03-30",
    "maxdate": "2020-01-19",
    "latitude": 33.42731,
    "name": "SHARPSBURG 6.0 N, GA US",
    "datacoverage": 0.9991,
    "id": "US1GACW0002",
    "elevationUnit": "METERS",
    "longitude": -84.66073
  },
  {
    "elevation": 266.4,
    "mindate": "2009-01-01",
    "maxdate": "2020-01-19",
    "latitude": 33.384001,
    "name": "NEWNAN 2.6 W, GA US",
    "datacoverage": 1,
    "id": "US1GACW0009",
    "elevationUnit": "METERS",
    "longitude": -84.833787
  },
  {
    "elevation": 21.3,
    "mindate": "2014-03-10",
    "maxdate": "2020-01-20",
    "latitude": 32.270433,
    "name": "MARLOW 0.0 S, GA US",
    "datacoverage": 0.9995,
    "id": "US1GAEF0013",
    "elevationUnit": "METERS",
    "longitude": -81.392146
  },
  {
    "elevation": 361.8,
    "mindate": "2016-01-01",
    "maxdate": "2020-01-20",
    "latitude": 34.165947004121,
    "name": "CUMMING 3.1 SSE, GA US",
    "datacoverage": 0.9993,
    "id": "US1GAFS0020",
    "elevationUnit": "METERS",
    "longitude": -84.1164444386959
  },
  {
    "elevation": 264.6,
    "mindate": "2008-11-07",
    "maxdate": "2020-01-20",
    "latitude": 33.701367,
    "name": "EAST POINT 6.3 WNW, GA US",
    "datacoverage": 1,
    "id": "US1GAFT0019",
    "elevationUnit": "METERS",
    "longitude": -84.572244
  },
  {
    "elevation": 536.4,
    "mindate": "2008-06-06",
    "maxdate": "2020-01-20",
    "latitude": 34.774199,
    "name": "HELEN 9.5 ENE, GA US",
    "datacoverage": 0.9967,
    "id": "US1GAHB0005",
    "elevationUnit": "METERS",
    "longitude": -83.580019
  },
  {
    "elevation": 145.4,
    "mindate": "2019-06-28",
    "maxdate": "2020-01-20",
    "latitude": 32.64852,
    "name": "BYRON 2.0 E, GA US",
    "datacoverage": 1,
    "id": "US1GAHS0024",
    "elevationUnit": "METERS",
    "longitude": -83.72424
  },
  {
    "elevation": 243.5,
    "mindate": "2010-06-17",
    "maxdate": "2020-01-20",
    "latitude": 34.404068,
    "name": "HARTWELL 5.6 NW, GA US",
    "datacoverage": 0.9989,
    "id": "US1GAHT0002",
    "elevationUnit": "METERS",
    "longitude": -83.008125
  },
  {
    "elevation": 5.8,
    "mindate": "2008-06-08",
    "maxdate": "2020-01-20",
    "latitude": 31.424722,
    "name": "DARIEN 4.2 NNE, GA US",
    "datacoverage": 0.9972,
    "id": "US1GAMI0003",
    "elevationUnit": "METERS",
    "longitude": -81.395833
  },
  {
    "elevation": 0.9,
    "mindate": "2009-02-19",
    "maxdate": "2020-01-20",
    "latitude": 31.57226599,
    "name": "TOWNSEND 5.5 SE, GA US",
    "datacoverage": 0.9982,
    "id": "US1GAMI0005",
    "elevationUnit": "METERS",
    "longitude": -81.36061917
  },
  {
    "elevation": 149,
    "mindate": "2013-09-22",
    "maxdate": "2020-01-19",
    "latitude": 32.914261,
    "name": "FORSYTH 8.3 S, GA US",
    "datacoverage": 0.9978,
    "id": "US1GAMN0010",
    "elevationUnit": "METERS",
    "longitude": -83.941625
  },
  {
    "elevation": 195.1,
    "mindate": "2008-05-01",
    "maxdate": "2020-01-20",
    "latitude": 33.86014,
    "name": "ARNOLDSVILLE 3.7 SSW, GA US",
    "datacoverage": 0.9958,
    "id": "US1GAOG0012",
    "elevationUnit": "METERS",
    "longitude": -83.24175
  },
  {
    "elevation": 65.2,
    "mindate": "2016-10-18",
    "maxdate": "2020-01-20",
    "latitude": 31.996184,
    "name": "MCRAE 6.6 SE, GA US",
    "datacoverage": 0.9966,
    "id": "US1GATE0004",
    "elevationUnit": "METERS",
    "longitude": -82.819866
  },
  {
    "elevation": 84.1,
    "mindate": "2009-01-07",
    "maxdate": "2020-01-19",
    "latitude": 30.8176,
    "name": "THOMASVILLE 5.1 ESE, GA US",
    "datacoverage": 0.9968,
    "id": "US1GATH0004",
    "elevationUnit": "METERS",
    "longitude": -83.8965
  },
  {
    "elevation": 610.8,
    "mindate": "2012-02-16",
    "maxdate": "2020-01-20",
    "latitude": 34.8362998962402,
    "name": "BLAIRSVILLE 8.5 WSW, GA US",
    "datacoverage": 0.9952,
    "id": "US1GAUN0008",
    "elevationUnit": "METERS",
    "longitude": -84.0943145751953
  },
  {
    "elevation": 678.8,
    "mindate": "2015-11-19",
    "maxdate": "2020-01-20",
    "latitude": 19.073249,
    "name": "NAALEHU 5.7 W, HI US",
    "datacoverage": 0.9961,
    "id": "US1HIHI0012",
    "elevationUnit": "METERS",
    "longitude": -155.663229
  },
  {
    "elevation": 757.4,
    "mindate": "2013-12-12",
    "maxdate": "2020-01-16",
    "latitude": 20.041679,
    "name": "HONOKAA 2.5 SSW, HI US",
    "datacoverage": 0.9951,
    "id": "US1HIHI0033",
    "elevationUnit": "METERS",
    "longitude": -155.477707
  },
  {
    "elevation": 613,
    "mindate": "2015-10-24",
    "maxdate": "2020-01-20",
    "latitude": 20.019048,
    "name": "PAAUILO 2.4 SW, HI US",
    "datacoverage": 0.9961,
    "id": "US1HIHI0050",
    "elevationUnit": "METERS",
    "longitude": -155.398803
  },
  {
    "elevation": 25,
    "mindate": "2014-08-16",
    "maxdate": "2020-01-20",
    "latitude": 21.987,
    "name": "LIHUE 1.3 NE, HI US",
    "datacoverage": 0.996,
    "id": "US1HIKI0009",
    "elevationUnit": "METERS",
    "longitude": -159.338
  },
  {
    "elevation": 369.7,
    "mindate": "2015-01-01",
    "maxdate": "2020-01-18",
    "latitude": 41.04128,
    "name": "MURRAY 1.7 W, IA US",
    "datacoverage": 1,
    "id": "US1IACL0004",
    "elevationUnit": "METERS",
    "longitude": -93.98046
  },
  {
    "elevation": 218.8,
    "mindate": "2007-09-12",
    "maxdate": "2020-01-20",
    "latitude": 41.843637,
    "name": "CALAMUS 2.0 NE, IA US",
    "datacoverage": 0.9951,
    "id": "US1IACN0002",
    "elevationUnit": "METERS",
    "longitude": -90.72746
  },
  {
    "elevation": 276.8,
    "mindate": "2017-11-01",
    "maxdate": "2020-01-20",
    "latitude": 40.626167,
    "name": "BLOOMFIELD 8.6 SSW, IA US",
    "datacoverage": 0.9988,
    "id": "US1IADV0003",
    "elevationUnit": "METERS",
    "longitude": -92.4543
  },
  {
    "elevation": 321,
    "mindate": "2007-07-01",
    "maxdate": "2020-01-19",
    "latitude": 41.799126,
    "name": "JAMAICA 3.2 S, IA US",
    "datacoverage": 1,
    "id": "US1IAGT0001",
    "elevationUnit": "METERS",
    "longitude": -94.309307
  },
  {
    "elevation": 224.9,
    "mindate": "2007-09-01",
    "maxdate": "2020-01-19",
    "latitude": 40.914155,
    "name": "NEW LONDON 1.5 SW, IA US",
    "datacoverage": 0.9958,
    "id": "US1IAHY0001",
    "elevationUnit": "METERS",
    "longitude": -91.429263
  },
  {
    "elevation": 357.8,
    "mindate": "2018-05-26",
    "maxdate": "2020-01-20",
    "latitude": 43.28372,
    "name": "OSAGE 4.7 E, IA US",
    "datacoverage": 0.9983,
    "id": "US1IAMT0001",
    "elevationUnit": "METERS",
    "longitude": -92.71764
  },
  {
    "elevation": 298.1,
    "mindate": "2007-08-01",
    "maxdate": "2020-01-19",
    "latitude": 42.044777,
    "name": "AMES 1.5 NNE, IA US",
    "datacoverage": 1,
    "id": "US1IASR0002",
    "elevationUnit": "METERS",
    "longitude": -93.617361
  },
  {
    "elevation": 220.1,
    "mindate": "2007-08-08",
    "maxdate": "2020-01-20",
    "latitude": 41.526432,
    "name": "DAVENPORT 0.9 SSW, IA US",
    "datacoverage": 0.9971,
    "id": "US1IAST0004",
    "elevationUnit": "METERS",
    "longitude": -90.585801
  },
  {
    "elevation": 182.9,
    "mindate": "2007-08-17",
    "maxdate": "2020-01-20",
    "latitude": 41.54013,
    "name": "BETTENDORF 2.2 SE, IA US",
    "datacoverage": 0.9965,
    "id": "US1IAST0008",
    "elevationUnit": "METERS",
    "longitude": -90.44924
  },
  {
    "elevation": 236.8,
    "mindate": "2015-01-01",
    "maxdate": "2020-01-20",
    "latitude": 41.644656,
    "name": "ELDRIDGE 0.7 SSW, IA US",
    "datacoverage": 0.9995,
    "id": "US1IAST0030",
    "elevationUnit": "METERS",
    "longitude": -90.587065
  },
  {
    "elevation": 338,
    "mindate": "2007-08-07",
    "maxdate": "2020-01-20",
    "latitude": 42.642564,
    "name": "BADGER 3.1 NW, IA US",
    "datacoverage": 0.9971,
    "id": "US1IAWB0005",
    "elevationUnit": "METERS",
    "longitude": -94.18785
  },
  {
    "elevation": 799.2,
    "mindate": "2008-12-01",
    "maxdate": "2020-01-19",
    "latitude": 43.6695,
    "name": "BOISE 5.3 NW, ID US",
    "datacoverage": 0.9995,
    "id": "US1IDAD0002",
    "elevationUnit": "METERS",
    "longitude": -116.2653
  },
  {
    "elevation": 819,
    "mindate": "2018-04-10",
    "maxdate": "2020-01-19",
    "latitude": 43.550843,
    "name": "MERIDIAN 4.8 SSE, ID US",
    "datacoverage": 1,
    "id": "US1IDAD0045",
    "elevationUnit": "METERS",
    "longitude": -116.352631
  },
  {
    "elevation": 1487.4,
    "mindate": "2009-06-20",
    "maxdate": "2020-01-19",
    "latitude": 43.617649,
    "name": "IDAHO FALLS 11.7 NE, ID US",
    "datacoverage": 1,
    "id": "US1IDBV0006",
    "elevationUnit": "METERS",
    "longitude": -111.884038
  },
  {
    "elevation": 744.9,
    "mindate": "2014-04-08",
    "maxdate": "2020-01-20",
    "latitude": 43.6453119,
    "name": "NAMPA 4.8 NNW, ID US",
    "datacoverage": 0.9953,
    "id": "US1IDCY0015",
    "elevationUnit": "METERS",
    "longitude": -116.593965
  },
  {
    "elevation": 771.1,
    "mindate": "2017-11-09",
    "maxdate": "2020-01-20",
    "latitude": 42.946264,
    "name": "HAMMETT 2.0 W, ID US",
    "datacoverage": 0.9975,
    "id": "US1IDEL0005",
    "elevationUnit": "METERS",
    "longitude": -115.468999
  },
  {
    "elevation": 823,
    "mindate": "2008-12-10",
    "maxdate": "2020-01-18",
    "latitude": 46.7544,
    "name": "MOSCOW 1.7 N, ID US",
    "datacoverage": 0.9973,
    "id": "US1IDLT0001",
    "elevationUnit": "METERS",
    "longitude": -117.0005
  },
  {
    "elevation": 278,
    "mindate": "2012-04-21",
    "maxdate": "2020-01-20",
    "latitude": 42.399979,
    "name": "CAPRON 0.1 N, IL US",
    "datacoverage": 1,
    "id": "US1ILBN0014",
    "elevationUnit": "METERS",
    "longitude": -88.742418
  },
  {
    "elevation": 209.4,
    "mindate": "2012-08-26",
    "maxdate": "2020-01-20",
    "latitude": 40.0944976806641,
    "name": "URBANA 4.2 ESE, IL US",
    "datacoverage": 0.9956,
    "id": "US1ILCP0095",
    "elevationUnit": "METERS",
    "longitude": -88.1281814575195
  },
  {
    "elevation": 232.6,
    "mindate": "2016-11-08",
    "maxdate": "2020-01-20",
    "latitude": 40.120601,
    "name": "CHAMPAIGN 0.6 NNE, IL US",
    "datacoverage": 1,
    "id": "US1ILCP0111",
    "elevationUnit": "METERS",
    "longitude": -88.261352
  },
  {
    "elevation": 205.1,
    "mindate": "2015-06-22",
    "maxdate": "2020-01-20",
    "latitude": 41.650638,
    "name": "SOMONAUK 1.9 NE, IL US",
    "datacoverage": 0.9964,
    "id": "US1ILDK0024",
    "elevationUnit": "METERS",
    "longitude": -88.656638
  },
  {
    "elevation": 209.1,
    "mindate": "2012-07-29",
    "maxdate": "2020-01-20",
    "latitude": 41.89287,
    "name": "ELMHURST 0.8 ESE, IL US",
    "datacoverage": 1,
    "id": "US1ILDP0109",
    "elevationUnit": "METERS",
    "longitude": -87.929556
  },
  {
    "elevation": 228.6,
    "mindate": "2013-10-31",
    "maxdate": "2020-01-17",
    "latitude": 41.743129,
    "name": "DARIEN 0.4 SSE, IL US",
    "datacoverage": 0.9996,
    "id": "US1ILDP0118",
    "elevationUnit": "METERS",
    "longitude": -87.974629
  },
  {
    "elevation": 227.7,
    "mindate": "2014-10-03",
    "maxdate": "2020-01-20",
    "latitude": 41.803318,
    "name": "DOWNERS GROVE 0.4 NNE, IL US",
    "datacoverage": 1,
    "id": "US1ILDP0127",
    "elevationUnit": "METERS",
    "longitude": -88.015427
  },
  {
    "elevation": 241.4,
    "mindate": "2015-06-25",
    "maxdate": "2020-01-20",
    "latitude": 41.8798,
    "name": "WHEATON 2.0 NNE, IL US",
    "datacoverage": 1,
    "id": "US1ILDP0132",
    "elevationUnit": "METERS",
    "longitude": -88.0863
  },
  {
    "elevation": 146.3,
    "mindate": "2019-04-01",
    "maxdate": "2020-01-20",
    "latitude": 38.373824,
    "name": "ALBION 0.2 SW, IL US",
    "datacoverage": 1,
    "id": "US1ILEW0003",
    "elevationUnit": "METERS",
    "longitude": -88.059299
  },
  {
    "elevation": 160,
    "mindate": "2006-11-01",
    "maxdate": "2020-01-20",
    "latitude": 41.341389,
    "name": "CARBON HILL 3.1 N, IL US",
    "datacoverage": 1,
    "id": "US1ILGY0001",
    "elevationUnit": "METERS",
    "longitude": -88.298056
  },
  {
    "elevation": 189,
    "mindate": "2013-10-07",
    "maxdate": "2020-01-20",
    "latitude": 40.8783798,
    "name": "ASHKUM 5.6 E, IL US",
    "datacoverage": 0.9987,
    "id": "US1ILIR0002",
    "elevationUnit": "METERS",
    "longitude": -87.84622
  },
  {
    "elevation": 192.9,
    "mindate": "2018-09-25",
    "maxdate": "2020-01-20",
    "latitude": 37.588417,
    "name": "NEW BURNSIDE 1.8 ENE, IL US",
    "datacoverage": 1,
    "id": "US1ILJH0001",
    "elevationUnit": "METERS",
    "longitude": -88.743179
  },
  {
    "elevation": 122.8,
    "mindate": "2016-02-12",
    "maxdate": "2020-01-20",
    "latitude": 37.814097,
    "name": "DE SOTO 0.3 ESE, IL US",
    "datacoverage": 1,
    "id": "US1ILJK0014",
    "elevationUnit": "METERS",
    "longitude": -89.223066
  },
  {
    "elevation": 167.9,
    "mindate": "2019-01-04",
    "maxdate": "2020-01-20",
    "latitude": 39.11824,
    "name": "YALE 0.1 SSW, IL US",
    "datacoverage": 1,
    "id": "US1ILJS0005",
    "elevationUnit": "METERS",
    "longitude": -88.02512
  },
  {
    "elevation": 256.9,
    "mindate": "2017-07-11",
    "maxdate": "2020-01-20",
    "latitude": 42.095,
    "name": "SLEEPY HOLLOW 0.7 W, IL US",
    "datacoverage": 0.9957,
    "id": "US1ILKN0118",
    "elevationUnit": "METERS",
    "longitude": -88.3279
  },
  {
    "elevation": 235.6,
    "mindate": "2010-06-01",
    "maxdate": "2020-01-20",
    "latitude": 40.913564,
    "name": "KNOXVILLE 0.7 NW, IL US",
    "datacoverage": 0.9997,
    "id": "US1ILKX0009",
    "elevationUnit": "METERS",
    "longitude": -90.293505
  },
  {
    "elevation": 192,
    "mindate": "2007-05-15",
    "maxdate": "2020-01-20",
    "latitude": 41.372759,
    "name": "OTTAWA 1.6 N, IL US",
    "datacoverage": 0.9955,
    "id": "US1ILLS0017",
    "elevationUnit": "METERS",
    "longitude": -88.841506
  },
  {
    "elevation": 207,
    "mindate": "2010-03-08",
    "maxdate": "2020-01-19",
    "latitude": 39.066387,
    "name": "MOUNT OLIVE 0.4 S, IL US",
    "datacoverage": 0.9958,
    "id": "US1ILMP0010",
    "elevationUnit": "METERS",
    "longitude": -89.72805
  },
  {
    "elevation": 182.9,
    "mindate": "2011-09-16",
    "maxdate": "2020-01-20",
    "latitude": 40.768333,
    "name": "PEORIA 3.4 WNW, IL US",
    "datacoverage": 0.9964,
    "id": "US1ILPR0008",
    "elevationUnit": "METERS",
    "longitude": -89.667222
  },
  {
    "elevation": 218.8,
    "mindate": "2009-03-29",
    "maxdate": "2020-01-19",
    "latitude": 40.189041,
    "name": "MANSFIELD 3.0 WSW, IL US",
    "datacoverage": 0.9957,
    "id": "US1ILPT0013",
    "elevationUnit": "METERS",
    "longitude": -88.558361
  },
  {
    "elevation": 157.9,
    "mindate": "2006-12-08",
    "maxdate": "2020-01-20",
    "latitude": 38.509621,
    "name": "BELLEVILLE 2.2 SE, IL US",
    "datacoverage": 0.9996,
    "id": "US1ILSC0003",
    "elevationUnit": "METERS",
    "longitude": -89.971091
  },
  {
    "elevation": 174.7,
    "mindate": "2019-04-14",
    "maxdate": "2020-01-20",
    "latitude": 39.84662,
    "name": "RIVERTON 0.2 SE, IL US",
    "datacoverage": 1,
    "id": "US1ILSG0060",
    "elevationUnit": "METERS",
    "longitude": -89.53693
  },
  {
    "elevation": 192.3,
    "mindate": "2017-11-13",
    "maxdate": "2020-01-20",
    "latitude": 37.559734672,
    "name": "COBDEN 4.1 ENE, IL US",
    "datacoverage": 0.9987,
    "id": "US1ILUN0008",
    "elevationUnit": "METERS",
    "longitude": -89.187950492
  },
  {
    "elevation": 207.9,
    "mindate": "2006-12-19",
    "maxdate": "2020-01-20",
    "latitude": 40.264737,
    "name": "HENNING 3.4 SSE, IL US",
    "datacoverage": 0.9983,
    "id": "US1ILVR0004",
    "elevationUnit": "METERS",
    "longitude": -87.665615
  },
  {
    "elevation": 224,
    "mindate": "2007-04-23",
    "maxdate": "2020-01-19",
    "latitude": 41.816004,
    "name": "MORRISON 3.2 E, IL US",
    "datacoverage": 0.9994,
    "id": "US1ILWD0005",
    "elevationUnit": "METERS",
    "longitude": -89.904
  },
  {
    "elevation": 228.6,
    "mindate": "2018-03-07",
    "maxdate": "2020-01-19",
    "latitude": 40.742606,
    "name": "EL PASO 0.6 WNW, IL US",
    "datacoverage": 0.9971,
    "id": "US1ILWF0021",
    "elevationUnit": "METERS",
    "longitude": -89.024646
  },
  {
    "elevation": 223.1,
    "mindate": "2008-06-04",
    "maxdate": "2020-01-20",
    "latitude": 41.333615,
    "name": "PEOTONE 0.4 ENE, IL US",
    "datacoverage": 0.9991,
    "id": "US1ILWL0046",
    "elevationUnit": "METERS",
    "longitude": -87.789061
  },
  {
    "elevation": 181.1,
    "mindate": "2009-03-13",
    "maxdate": "2020-01-20",
    "latitude": 41.581908,
    "name": "PLAINFIELD 2.4 SSE, IL US",
    "datacoverage": 0.9995,
    "id": "US1ILWL0051",
    "elevationUnit": "METERS",
    "longitude": -88.193674
  },
  {
    "elevation": 232.9,
    "mindate": "2017-06-17",
    "maxdate": "2020-01-19",
    "latitude": 39.27934,
    "name": "W9DBA MORGANTOWN 6.7 SSE, IN US",
    "datacoverage": 0.9968,
    "id": "US1INBR0005",
    "elevationUnit": "METERS",
    "longitude": -86.231082
  },
  {
    "elevation": 142,
    "mindate": "2009-05-01",
    "maxdate": "2020-01-19",
    "latitude": 38.297265,
    "name": "JEFFERSONVILLE 0.4 SE, IN US",
    "datacoverage": 0.9967,
    "id": "US1INCK0023",
    "elevationUnit": "METERS",
    "longitude": -85.71975
  },
  {
    "elevation": 153.3,
    "mindate": "2006-03-01",
    "maxdate": "2020-01-20",
    "latitude": 38.29294,
    "name": "HUNTINGBURG 0.4 SSW, IN US",
    "datacoverage": 0.9988,
    "id": "US1INDB0001",
    "elevationUnit": "METERS",
    "longitude": -86.9611
  },
  {
    "elevation": 145.1,
    "mindate": "2006-03-09",
    "maxdate": "2020-01-20",
    "latitude": 38.67543,
    "name": "WASHINGTON 1.5 NW, IN US",
    "datacoverage": 0.9966,
    "id": "US1INDV0001",
    "elevationUnit": "METERS",
    "longitude": -87.18996
  },
  {
    "elevation": 256,
    "mindate": "2006-08-10",
    "maxdate": "2020-01-20",
    "latitude": 41.56551,
    "name": "WAKARUSA 2.4 NNE, IN US",
    "datacoverage": 1,
    "id": "US1INEL0008",
    "elevationUnit": "METERS",
    "longitude": -85.9933
  },
  {
    "elevation": 226.2,
    "mindate": "2008-10-25",
    "maxdate": "2020-01-20",
    "latitude": 41.642487,
    "name": "ELKHART 4.8 SW, IN US",
    "datacoverage": 0.9978,
    "id": "US1INEL0036",
    "elevationUnit": "METERS",
    "longitude": -86.04149
  },
  {
    "elevation": 270.1,
    "mindate": "2010-05-01",
    "maxdate": "2020-01-20",
    "latitude": 41.557751,
    "name": "GOSHEN 3.0 WSW, IN US",
    "datacoverage": 0.9989,
    "id": "US1INEL0039",
    "elevationUnit": "METERS",
    "longitude": -85.883424
  },
  {
    "elevation": 259.1,
    "mindate": "2007-04-01",
    "maxdate": "2020-01-20",
    "latitude": 39.937,
    "name": "MCCORDSVILLE 2.6 NE, IN US",
    "datacoverage": 1,
    "id": "US1INHN0011",
    "elevationUnit": "METERS",
    "longitude": -85.9
  },
  {
    "elevation": 232,
    "mindate": "2006-05-28",
    "maxdate": "2020-01-20",
    "latitude": 38.695977,
    "name": "HANOVER 1.4 S, IN US",
    "datacoverage": 0.9998,
    "id": "US1INJF0001",
    "elevationUnit": "METERS",
    "longitude": -85.472744
  },
  {
    "elevation": 223.1,
    "mindate": "2018-05-15",
    "maxdate": "2020-01-20",
    "latitude": 41.415247,
    "name": "ST. JOHN 2.8 SE, IN US",
    "datacoverage": 1,
    "id": "US1INLK0099",
    "elevationUnit": "METERS",
    "longitude": -87.443594
  },
  {
    "elevation": 253.9,
    "mindate": "2006-12-02",
    "maxdate": "2020-01-20",
    "latitude": 41.5904,
    "name": "LA PORTE 1.6 SW, IN US",
    "datacoverage": 0.9956,
    "id": "US1INLP0007",
    "elevationUnit": "METERS",
    "longitude": -86.7343
  },
  {
    "elevation": 241.4,
    "mindate": "2008-05-01",
    "maxdate": "2020-01-20",
    "latitude": 41.611438,
    "name": "LA PORTE 1.3 ENE, IN US",
    "datacoverage": 0.9967,
    "id": "US1INLP0028",
    "elevationUnit": "METERS",
    "longitude": -86.690707
  },
  {
    "elevation": 194.8,
    "mindate": "2011-10-14",
    "maxdate": "2020-01-20",
    "latitude": 39.39605,
    "name": "MARTINSVILLE 2.3 SE, IN US",
    "datacoverage": 0.9983,
    "id": "US1INMG0021",
    "elevationUnit": "METERS",
    "longitude": -86.39561667
  },
  {
    "elevation": 248.1,
    "mindate": "2006-11-11",
    "maxdate": "2020-01-20",
    "latitude": 41.329704,
    "name": "PLYMOUTH 2.5 WSW, IN US",
    "datacoverage": 0.9994,
    "id": "US1INML0006",
    "elevationUnit": "METERS",
    "longitude": -86.356804
  },
  {
    "elevation": 285.3,
    "mindate": "2009-10-28",
    "maxdate": "2020-01-19",
    "latitude": 41.341605,
    "name": "ALBION 3.7 S, IN US",
    "datacoverage": 0.9976,
    "id": "US1INNB0011",
    "elevationUnit": "METERS",
    "longitude": -85.415637
  },
  {
    "elevation": 235.9,
    "mindate": "2007-02-19",
    "maxdate": "2020-01-20",
    "latitude": 39.185767,
    "name": "SPENCER 7.0 S, IN US",
    "datacoverage": 0.9998,
    "id": "US1INOW0009",
    "elevationUnit": "METERS",
    "longitude": -86.778233
  },
  {
    "elevation": 290.2,
    "mindate": "2009-02-11",
    "maxdate": "2020-01-20",
    "latitude": 39.16916,
    "name": "OSGOOD 4.1 NE, IN US",
    "datacoverage": 0.9962,
    "id": "US1INRP0004",
    "elevationUnit": "METERS",
    "longitude": -85.23612
  },
  {
    "elevation": 269.4,
    "mindate": "2008-07-25",
    "maxdate": "2020-01-20",
    "latitude": 41.6209,
    "name": "SOUTH BEND 4.6 SE, IN US",
    "datacoverage": 0.9964,
    "id": "US1INSJ0028",
    "elevationUnit": "METERS",
    "longitude": -86.2152
  },
  {
    "elevation": 227.4,
    "mindate": "2009-05-19",
    "maxdate": "2020-01-18",
    "latitude": 41.4869,
    "name": "WALKERTON 4.1 ENE, IN US",
    "datacoverage": 0.9982,
    "id": "US1INSJ0034",
    "elevationUnit": "METERS",
    "longitude": -86.4082
  },
  {
    "elevation": 143,
    "mindate": "2006-07-21",
    "maxdate": "2020-01-19",
    "latitude": 38.080463,
    "name": "BOONVILLE 2.4 N, IN US",
    "datacoverage": 1,
    "id": "US1INWK0005",
    "elevationUnit": "METERS",
    "longitude": -87.275781
  },
  {
    "elevation": 265.2,
    "mindate": "2009-05-02",
    "maxdate": "2020-01-20",
    "latitude": 37.921478,
    "name": "DEVON 0.1 SE, KS US",
    "datacoverage": 0.9997,
    "id": "US1KSBB0017",
    "elevationUnit": "METERS",
    "longitude": -94.817663
  },
  {
    "elevation": 373.7,
    "mindate": "2009-05-12",
    "maxdate": "2020-01-18",
    "latitude": 37.678181,
    "name": "AUGUSTA 1.0 S, KS US",
    "datacoverage": 0.9982,
    "id": "US1KSBU0014",
    "elevationUnit": "METERS",
    "longitude": -96.97227
  },
  {
    "elevation": 411.5,
    "mindate": "2013-02-01",
    "maxdate": "2020-01-20",
    "latitude": 37.8038661,
    "name": "EL DORADO 1.2 S, KS US",
    "datacoverage": 0.9957,
    "id": "US1KSBU0025",
    "elevationUnit": "METERS",
    "longitude": -96.8601425
  },
  {
    "elevation": 417,
    "mindate": "2018-10-06",
    "maxdate": "2020-01-19",
    "latitude": 37.946895,
    "name": "EL DORADO 10.6 NE, KS US",
    "datacoverage": 0.9979,
    "id": "US1KSBU0034",
    "elevationUnit": "METERS",
    "longitude": -96.74801
  },
  {
    "elevation": 797.1,
    "mindate": "2005-02-28",
    "maxdate": "2020-01-20",
    "latitude": 39.8127,
    "name": "NORCATUR 3.1 WSW, KS US",
    "datacoverage": 0.9993,
    "id": "US1KSDC0001",
    "elevationUnit": "METERS",
    "longitude": -100.2421
  },
  {
    "elevation": 766.9,
    "mindate": "2005-03-01",
    "maxdate": "2020-01-20",
    "latitude": 39.7704,
    "name": "NORCATUR 4.4 S, KS US",
    "datacoverage": 0.9974,
    "id": "US1KSDC0002",
    "elevationUnit": "METERS",
    "longitude": -100.1813
  },
  {
    "elevation": 839.1,
    "mindate": "2006-04-01",
    "maxdate": "2020-01-18",
    "latitude": 39.9632,
    "name": "TRAER 2.5 NNW, KS US",
    "datacoverage": 0.998,
    "id": "US1KSDC0003",
    "elevationUnit": "METERS",
    "longitude": -100.6672
  },
  {
    "elevation": 353.3,
    "mindate": "2011-08-16",
    "maxdate": "2020-01-17",
    "latitude": 38.9340589,
    "name": "ABILENE 5.4 E, KS US",
    "datacoverage": 0.9977,
    "id": "US1KSDK0030",
    "elevationUnit": "METERS",
    "longitude": -97.1237575
  },
  {
    "elevation": 805.9,
    "mindate": "2005-01-01",
    "maxdate": "2020-01-17",
    "latitude": 37.77731,
    "name": "DODGE CITY 2.5 NW, KS US",
    "datacoverage": 0.9978,
    "id": "US1KSFO0003",
    "elevationUnit": "METERS",
    "longitude": -100.05358
  },
  {
    "elevation": 939.4,
    "mindate": "2008-03-06",
    "maxdate": "2020-01-20",
    "latitude": 37.599017,
    "name": "ULYSSES 3.8 ENE, KS US",
    "datacoverage": 0.9972,
    "id": "US1KSGT0005",
    "elevationUnit": "METERS",
    "longitude": -101.29114
  },
  {
    "elevation": 326.7,
    "mindate": "2018-06-12",
    "maxdate": "2020-01-20",
    "latitude": 37.750096,
    "name": "EUREKA 5.4 SSE, KS US",
    "datacoverage": 1,
    "id": "US1KSGW0006",
    "elevationUnit": "METERS",
    "longitude": -96.250369
  },
  {
    "elevation": 412.1,
    "mindate": "2018-11-20",
    "maxdate": "2020-01-20",
    "latitude": 38.35184,
    "name": "MARION 0.2 NE, KS US",
    "datacoverage": 0.9953,
    "id": "US1KSMN0025",
    "elevationUnit": "METERS",
    "longitude": -97.013074
  },
  {
    "elevation": 275.8,
    "mindate": "2017-08-18",
    "maxdate": "2020-01-20",
    "latitude": 37.574322,
    "name": "ERIE 0.4 NNW, KS US",
    "datacoverage": 0.9989,
    "id": "US1KSNO0009",
    "elevationUnit": "METERS",
    "longitude": -95.24604
  },
  {
    "elevation": 783.9,
    "mindate": "2005-08-01",
    "maxdate": "2020-01-20",
    "latitude": 38.6956,
    "name": "ARNOLD 4.8 NNW, KS US",
    "datacoverage": 0.9955,
    "id": "US1KSNS0006",
    "elevationUnit": "METERS",
    "longitude": -100.0664
  },
  {
    "elevation": 620,
    "mindate": "2012-09-28",
    "maxdate": "2020-01-20",
    "latitude": 39.27861111,
    "name": "NATOMA 6.7 NNE, KS US",
    "datacoverage": 0.9989,
    "id": "US1KSOB0005",
    "elevationUnit": "METERS",
    "longitude": -98.97694444
  },
  {
    "elevation": 577.9,
    "mindate": "2009-08-19",
    "maxdate": "2020-01-20",
    "latitude": 37.625909,
    "name": "PRATT 1.6 SSE, KS US",
    "datacoverage": 0.9953,
    "id": "US1KSPR0013",
    "elevationUnit": "METERS",
    "longitude": -98.723993
  },
  {
    "elevation": 334.1,
    "mindate": "2018-08-14",
    "maxdate": "2020-01-20",
    "latitude": 39.18569,
    "name": "MANHATTAN 3.0 W, KS US",
    "datacoverage": 1,
    "id": "US1KSRL0048",
    "elevationUnit": "METERS",
    "longitude": -96.64659
  },
  {
    "elevation": 480.4,
    "mindate": "2014-06-23",
    "maxdate": "2020-01-20",
    "latitude": 37.88916015625,
    "name": "ARLINGTON 0.5 S, KS US",
    "datacoverage": 0.9956,
    "id": "US1KSRN0052",
    "elevationUnit": "METERS",
    "longitude": -98.1773376464844
  },
  {
    "elevation": 401.1,
    "mindate": "2009-11-17",
    "maxdate": "2020-01-19",
    "latitude": 38.9161592,
    "name": "SALINA 7.0 N, KS US",
    "datacoverage": 0.9992,
    "id": "US1KSSA0011",
    "elevationUnit": "METERS",
    "longitude": -97.5999385
  },
  {
    "elevation": 440.1,
    "mindate": "2011-08-18",
    "maxdate": "2020-01-20",
    "latitude": 38.856487,
    "name": "BROOKVILLE 5.9 NNW, KS US",
    "datacoverage": 0.999,
    "id": "US1KSSA0014",
    "elevationUnit": "METERS",
    "longitude": -97.888343
  },
  {
    "elevation": 416.1,
    "mindate": "2006-06-22",
    "maxdate": "2020-01-20",
    "latitude": 37.6916,
    "name": "MAIZE 5.7 S, KS US",
    "datacoverage": 0.9998,
    "id": "US1KSSG0002",
    "elevationUnit": "METERS",
    "longitude": -97.4797
  },
  {
    "elevation": 417.6,
    "mindate": "2008-02-24",
    "maxdate": "2020-01-20",
    "latitude": 37.6925,
    "name": "WICHITA 7.9 W, KS US",
    "datacoverage": 0.9982,
    "id": "US1KSSG0020",
    "elevationUnit": "METERS",
    "longitude": -97.4877
  },
  {
    "elevation": 407.5,
    "mindate": "2010-09-22",
    "maxdate": "2020-01-18",
    "latitude": 37.7953,
    "name": "WICHITA 7.4 NNW, KS US",
    "datacoverage": 1,
    "id": "US1KSSG0069",
    "elevationUnit": "METERS",
    "longitude": -97.3761
  },
  {
    "elevation": 437.4,
    "mindate": "2017-07-28",
    "maxdate": "2020-01-20",
    "latitude": 37.86543,
    "name": "VALLEY CENTER 3.5 NE, KS US",
    "datacoverage": 0.9956,
    "id": "US1KSSG0130",
    "elevationUnit": "METERS",
    "longitude": -97.32257
  },
  {
    "elevation": 428.2,
    "mindate": "2019-05-01",
    "maxdate": "2020-01-19",
    "latitude": 37.7678,
    "name": "BEL AIRE 0.7 WNW, KS US",
    "datacoverage": 0.9962,
    "id": "US1KSSG0144",
    "elevationUnit": "METERS",
    "longitude": -97.2798
  },
  {
    "elevation": 549.2,
    "mindate": "2011-05-12",
    "maxdate": "2020-01-09",
    "latitude": 39.781767,
    "name": "SMITH CENTER 0.2 NW, KS US",
    "datacoverage": 0.9978,
    "id": "US1KSSM0002",
    "elevationUnit": "METERS",
    "longitude": -98.784942
  },
  {
    "elevation": 967.1,
    "mindate": "2007-02-07",
    "maxdate": "2020-01-20",
    "latitude": 39.39472,
    "name": "COLBY 0.6 NNW, KS US",
    "datacoverage": 0.9977,
    "id": "US1KSTH0018",
    "elevationUnit": "METERS",
    "longitude": -101.05094
  },
  {
    "elevation": 231.6,
    "mindate": "2007-12-15",
    "maxdate": "2020-01-20",
    "latitude": 36.7207,
    "name": "SCOTTSVILLE 9.2 ESE, KY US",
    "datacoverage": 0.9973,
    "id": "US1KYAL0004",
    "elevationUnit": "METERS",
    "longitude": -86.0349
  },
  {
    "elevation": 234.7,
    "mindate": "2016-04-02",
    "maxdate": "2020-01-20",
    "latitude": 37.465372,
    "name": "JACKSON 8.4 SE, KY US",
    "datacoverage": 1,
    "id": "US1KYBE0005",
    "elevationUnit": "METERS",
    "longitude": -83.280179
  },
  {
    "elevation": 188.4,
    "mindate": "2018-02-07",
    "maxdate": "2020-01-20",
    "latitude": 36.71632,
    "name": "OAK GROVE 4.6 NW, KY US",
    "datacoverage": 0.9958,
    "id": "US1KYCH0009",
    "elevationUnit": "METERS",
    "longitude": -87.48404
  },
  {
    "elevation": 287.1,
    "mindate": "2008-03-05",
    "maxdate": "2020-01-20",
    "latitude": 37.524503,
    "name": "BRADFORDSVILLE 8.5 ENE, KY US",
    "datacoverage": 0.9986,
    "id": "US1KYCS0001",
    "elevationUnit": "METERS",
    "longitude": -84.996532
  },
  {
    "elevation": 334.1,
    "mindate": "2010-09-02",
    "maxdate": "2020-01-20",
    "latitude": 37.30528,
    "name": "LIBERTY 1.1 SE, KY US",
    "datacoverage": 0.9997,
    "id": "US1KYCS0004",
    "elevationUnit": "METERS",
    "longitude": -84.918305
  },
  {
    "elevation": 242.6,
    "mindate": "2018-08-30",
    "maxdate": "2020-01-20",
    "latitude": 38.527222,
    "name": "RIBOLT 3.0 S, KY US",
    "datacoverage": 1,
    "id": "US1KYLW0003",
    "elevationUnit": "METERS",
    "longitude": -83.516297
  },
  {
    "elevation": 187.1,
    "mindate": "2008-03-18",
    "maxdate": "2020-01-20",
    "latitude": 37.732695,
    "name": "NEW HAVEN 6.4 NE, KY US",
    "datacoverage": 0.9968,
    "id": "US1KYNL0004",
    "elevationUnit": "METERS",
    "longitude": -85.517378
  },
  {
    "elevation": 246,
    "mindate": "2007-12-17",
    "maxdate": "2020-01-20",
    "latitude": 38.361959,
    "name": "PARK LAKE 1.8 NE, KY US",
    "datacoverage": 0.9986,
    "id": "US1KYOL0001",
    "elevationUnit": "METERS",
    "longitude": -85.447846
  },
  {
    "elevation": 275.2,
    "mindate": "2018-07-28",
    "maxdate": "2020-01-19",
    "latitude": 38.6609441,
    "name": "BEDFORD 4.7 N, KY US",
    "datacoverage": 0.9982,
    "id": "US1KYTB0008",
    "elevationUnit": "METERS",
    "longitude": -85.3233818
  },
  {
    "elevation": 164.6,
    "mindate": "2008-02-12",
    "maxdate": "2020-01-20",
    "latitude": 36.653418,
    "name": "GUTHRIE 0.8 WNW, KY US",
    "datacoverage": 0.9991,
    "id": "US1KYTD0002",
    "elevationUnit": "METERS",
    "longitude": -87.184011
  },
  {
    "elevation": 4.9,
    "mindate": "2008-01-19",
    "maxdate": "2020-01-18",
    "latitude": 30.158418,
    "name": "GONZALES 4.0 S, LA US",
    "datacoverage": 0.9954,
    "id": "US1LAAS0005",
    "elevationUnit": "METERS",
    "longitude": -90.920684
  },
  {
    "elevation": 23.8,
    "mindate": "2007-12-28",
    "maxdate": "2020-01-20",
    "latitude": 32.54475,
    "name": "SWARTZ 2.0 SSW, LA US",
    "datacoverage": 0.9993,
    "id": "US1LAOC0001",
    "elevationUnit": "METERS",
    "longitude": -92.0039
  },
  {
    "elevation": 24.4,
    "mindate": "2016-07-17",
    "maxdate": "2020-01-19",
    "latitude": 31.262413,
    "name": "ALEXANDRIA 2.8 SW, LA US",
    "datacoverage": 1,
    "id": "US1LARP0007",
    "elevationUnit": "METERS",
    "longitude": -92.494619
  },
  {
    "elevation": 3,
    "mindate": "2019-03-25",
    "maxdate": "2020-01-20",
    "latitude": 30.300063,
    "name": "SLIDELL 1.7 NE, LA US",
    "datacoverage": 1,
    "id": "US1LAST0023",
    "elevationUnit": "METERS",
    "longitude": -89.759247
  },
  {
    "elevation": 2.4,
    "mindate": "2009-03-01",
    "maxdate": "2020-01-17",
    "latitude": 41.553061,
    "name": "FALMOUTH 3.0 E, MA US",
    "datacoverage": 0.9975,
    "id": "US1MABA0003",
    "elevationUnit": "METERS",
    "longitude": -70.550358
  },
  {
    "elevation": 15.2,
    "mindate": "2017-04-02",
    "maxdate": "2020-01-20",
    "latitude": 41.6943,
    "name": "BARNSTABLE 3.6 W, MA US",
    "datacoverage": 0.999,
    "id": "US1MABA0059",
    "elevationUnit": "METERS",
    "longitude": -70.3696
  },
  {
    "elevation": 27.7,
    "mindate": "2013-01-14",
    "maxdate": "2020-01-13",
    "latitude": 41.534589,
    "name": "DARTMOUTH 2.5 SSW, MA US",
    "datacoverage": 0.9992,
    "id": "US1MABR0014",
    "elevationUnit": "METERS",
    "longitude": -71.021972
  },
  {
    "elevation": 27.1,
    "mindate": "2019-03-18",
    "maxdate": "2020-01-20",
    "latitude": 41.858026,
    "name": "DIGHTON 3.3 NNW, MA US",
    "datacoverage": 1,
    "id": "US1MABR0058",
    "elevationUnit": "METERS",
    "longitude": -71.1473342
  },
  {
    "elevation": 29,
    "mindate": "2015-10-21",
    "maxdate": "2020-01-20",
    "latitude": 42.794490814209,
    "name": "HAVERHILL 0.7 N, MA US",
    "datacoverage": 0.9994,
    "id": "US1MAES0020",
    "elevationUnit": "METERS",
    "longitude": -71.0860595703125
  },
  {
    "elevation": 13.7,
    "mindate": "2017-03-31",
    "maxdate": "2020-01-20",
    "latitude": 42.568494,
    "name": "DANVERS 0.8 ESE, MA US",
    "datacoverage": 1,
    "id": "US1MAES0041",
    "elevationUnit": "METERS",
    "longitude": -70.935267
  },
  {
    "elevation": 62.5,
    "mindate": "2018-05-27",
    "maxdate": "2020-01-20",
    "latitude": 42.6565953,
    "name": "ANDOVER 0.6 E, MA US",
    "datacoverage": 0.9983,
    "id": "US1MAES0048",
    "elevationUnit": "METERS",
    "longitude": -71.130485
  },
  {
    "elevation": 29.6,
    "mindate": "2019-03-22",
    "maxdate": "2020-01-19",
    "latitude": 42.581336,
    "name": "MIDDLETON 1.4 SSW, MA US",
    "datacoverage": 1,
    "id": "US1MAES0058",
    "elevationUnit": "METERS",
    "longitude": -71.027075
  },
  {
    "elevation": 27.7,
    "mindate": "2019-04-02",
    "maxdate": "2020-01-20",
    "latitude": 42.87322,
    "name": "AMESBURY 1.2 N, MA US",
    "datacoverage": 1,
    "id": "US1MAES0059",
    "elevationUnit": "METERS",
    "longitude": -70.9302
  },
  {
    "elevation": 166.4,
    "mindate": "2013-09-28",
    "maxdate": "2020-01-20",
    "latitude": 42.5087884068489,
    "name": "CONWAY 0.9 SW, MA US",
    "datacoverage": 0.997,
    "id": "US1MAFR0010",
    "elevationUnit": "METERS",
    "longitude": -72.6973506063223
  },
  {
    "elevation": 224.9,
    "mindate": "2019-04-01",
    "maxdate": "2020-01-20",
    "latitude": 42.687163,
    "name": "COLRAIN 3.7 WNW, MA US",
    "datacoverage": 1,
    "id": "US1MAFR0031",
    "elevationUnit": "METERS",
    "longitude": -72.75112
  },
  {
    "elevation": 65.5,
    "mindate": "2017-10-13",
    "maxdate": "2020-01-20",
    "latitude": 42.145237,
    "name": "LUDLOW 2.3 SW, MA US",
    "datacoverage": 1,
    "id": "US1MAHD0025",
    "elevationUnit": "METERS",
    "longitude": -72.516502
  },
  {
    "elevation": 64.3,
    "mindate": "2010-08-23",
    "maxdate": "2020-01-20",
    "latitude": 42.467455,
    "name": "ACTON 1.3 SW, MA US",
    "datacoverage": 0.9965,
    "id": "US1MAMD0012",
    "elevationUnit": "METERS",
    "longitude": -71.481997
  },
  {
    "elevation": 86.3,
    "mindate": "2017-07-30",
    "maxdate": "2020-01-19",
    "latitude": 42.20069,
    "name": "HOLLISTON 2.4 W, MA US",
    "datacoverage": 1,
    "id": "US1MAMD0106",
    "elevationUnit": "METERS",
    "longitude": -71.479819
  },
  {
    "elevation": 65.5,
    "mindate": "2009-02-24",
    "maxdate": "2020-01-20",
    "latitude": 42.197582,
    "name": "NORWOOD 1.3 NW, MA US",
    "datacoverage": 0.9995,
    "id": "US1MANF0001",
    "elevationUnit": "METERS",
    "longitude": -71.213728
  },
  {
    "elevation": 68.3,
    "mindate": "2005-09-01",
    "maxdate": "2020-01-20",
    "latitude": 39.1321,
    "name": "SEVERN 2.0 W, MD US",
    "datacoverage": 0.997,
    "id": "US1MDAA0004",
    "elevationUnit": "METERS",
    "longitude": -76.728
  },
  {
    "elevation": 230.1,
    "mindate": "2006-02-27",
    "maxdate": "2020-01-19",
    "latitude": 39.576776,
    "name": "CRESAPTOWN BEL AIR 0.9 SSE, MD US",
    "datacoverage": 1,
    "id": "US1MDAL0002",
    "elevationUnit": "METERS",
    "longitude": -78.849789
  },
  {
    "elevation": 222.2,
    "mindate": "2011-01-01",
    "maxdate": "2020-01-18",
    "latitude": 39.470726,
    "name": "REISTERSTOWN 1.2 NW, MD US",
    "datacoverage": 0.9985,
    "id": "US1MDBL0035",
    "elevationUnit": "METERS",
    "longitude": -76.829937
  },
  {
    "elevation": 245.4,
    "mindate": "2019-05-30",
    "maxdate": "2020-01-20",
    "latitude": 39.531345,
    "name": "WESTMINSTER 3.4 SSW, MD US",
    "datacoverage": 0.9958,
    "id": "US1MDCR0036",
    "elevationUnit": "METERS",
    "longitude": -77.020798
  },
  {
    "elevation": 348.7,
    "mindate": "2017-10-01",
    "maxdate": "2020-01-20",
    "latitude": 39.667363,
    "name": "THURMONT 3.0 N, MD US",
    "datacoverage": 1,
    "id": "US1MDFR0030",
    "elevationUnit": "METERS",
    "longitude": -77.40411
  },
  {
    "elevation": 834.2,
    "mindate": "2018-11-16",
    "maxdate": "2020-01-20",
    "latitude": 39.620699,
    "name": "ACCIDENT 3.9 E, MD US",
    "datacoverage": 0.9954,
    "id": "US1MDGR0012",
    "elevationUnit": "METERS",
    "longitude": -79.247508
  },